[
  {
    "id": "salon-001",
    "name": "Sandy Nail & Beauty Salon",
    "address": "Townsville City",
    "suburb": "Townsville City",
    "state": "QLD",
    "postcode": "4810",
    "phone": "",
    "lat": -19.25985065,
    "lon": 146.81780755000003,
    "hours": ""
  },
  {
    "id": "salon-002",
    "name": "Beauty Nails Penrith",
    "address": "Penrith",
    "suburb": "Penrith",
    "state": "NSW",
    "postcode": "2750",
    "phone": "",
    "lat": -33.74484885,
    "lon": 150.68954015,
    "hours": ""
  },
  {
    "id": "salon-003",
    "name": "Ultra Essence Skin & Body",
    "address": "Blacks Beach",
    "suburb": "Blacks Beach",
    "state": "QLD",
    "postcode": "4740",
    "phone": "",
    "lat": -21.063616149999998,
    "lon": 149.18999285,
    "hours": ""
  },
  {
    "id": "salon-004",
    "name": "Skinfit Body & Beauty",
    "address": "Warrnambool",
    "suburb": "Warrnambool",
    "state": "VIC",
    "postcode": "3280",
    "phone": "",
    "lat": -38.36983125,
    "lon": 142.49677004999998,
    "hours": ""
  },
  {
    "id": "salon-005",
    "name": "Bayside Hair & Beauty Salon",
    "address": "Warners Bay",
    "suburb": "Warners Bay",
    "state": "NSW",
    "postcode": "2282",
    "phone": "",
    "lat": -32.97952889999999,
    "lon": 151.65006695,
    "hours": ""
  },
  {
    "id": "salon-006",
    "name": "Bella Medi Spa",
    "address": "Mudgee",
    "suburb": "Mudgee",
    "state": "NSW",
    "postcode": "2850",
    "phone": "",
    "lat": -32.6126581,
    "lon": 149.57811775,
    "hours": ""
  },
  {
    "id": "salon-007",
    "name": "The Organic Therapist @ Heavenly Rituals",
    "address": "Ripponlea",
    "suburb": "Ripponlea",
    "state": "VIC",
    "postcode": "3185",
    "phone": "",
    "lat": -37.8788644,
    "lon": 144.99466865000002,
    "hours": ""
  },
  {
    "id": "salon-008",
    "name": "Express Beauties",
    "address": "Wodonga",
    "suburb": "Wodonga",
    "state": "VIC",
    "postcode": "3690",
    "phone": "",
    "lat": -36.1168777,
    "lon": 146.84841244999998,
    "hours": ""
  },
  {
    "id": "salon-009",
    "name": "I Love Beauty Bendigo",
    "address": "Bendigo",
    "suburb": "Bendigo",
    "state": "VIC",
    "postcode": "3550",
    "phone": "",
    "lat": -36.75617985,
    "lon": 144.28015195,
    "hours": ""
  },
  {
    "id": "salon-010",
    "name": "Ella Bache Fountain Gate",
    "address": "Narre Warren",
    "suburb": "Narre Warren",
    "state": "VIC",
    "postcode": "3805",
    "phone": "",
    "lat": -38.02054604999999,
    "lon": 145.3081179,
    "hours": ""
  },
  {
    "id": "salon-011",
    "name": "Brenwood Skin Renewal Centre",
    "address": "Brentwood",
    "suburb": "Brentwood",
    "state": "WA",
    "postcode": "6153",
    "phone": "",
    "lat": -32.04333375,
    "lon": 115.8527892,
    "hours": ""
  },
  {
    "id": "salon-012",
    "name": "Elite Cosmetic Tattooing & Beauty",
    "address": "Point Cook",
    "suburb": "Point Cook",
    "state": "VIC",
    "postcode": "3030",
    "phone": "",
    "lat": -37.90542505,
    "lon": 144.75421545,
    "hours": ""
  },
  {
    "id": "salon-013",
    "name": "Healthy Glow Beauty Clinic",
    "address": "Lynbrook",
    "suburb": "Lynbrook",
    "state": "VIC",
    "postcode": "3975",
    "phone": "",
    "lat": -38.056662,
    "lon": 145.25567279999999,
    "hours": ""
  },
  {
    "id": "salon-014",
    "name": "Maison Belle Beauty",
    "address": "Shepparton",
    "suburb": "Shepparton",
    "state": "VIC",
    "postcode": "3630",
    "phone": "",
    "lat": -36.37339479999999,
    "lon": 145.39191985,
    "hours": ""
  },
  {
    "id": "salon-015",
    "name": "Creativity By Geena",
    "address": "Brighton-le-sands",
    "suburb": "Brighton-le-sands",
    "state": "NSW",
    "postcode": "2216",
    "phone": "",
    "lat": -33.958724100000005,
    "lon": 151.1541731,
    "hours": ""
  },
  {
    "id": "salon-016",
    "name": "Skin & Tonic Merimbula",
    "address": "Merimbula",
    "suburb": "Merimbula",
    "state": "NSW",
    "postcode": "2548",
    "phone": "",
    "lat": -36.8961994,
    "lon": 149.90427949999997,
    "hours": ""
  },
  {
    "id": "salon-017",
    "name": "Aqualine Beauty & Day Spa",
    "address": "Bundaberg West",
    "suburb": "Bundaberg West",
    "state": "QLD",
    "postcode": "4670",
    "phone": "",
    "lat": -24.871994199999996,
    "lon": 152.33823155,
    "hours": ""
  },
  {
    "id": "salon-018",
    "name": "Anita's Health & Beauty Salon",
    "address": "Parap",
    "suburb": "Parap",
    "state": "NT",
    "postcode": "0820",
    "phone": "",
    "lat": -12.43405655,
    "lon": 130.84616029999998,
    "hours": ""
  },
  {
    "id": "salon-019",
    "name": "Lush Lashes By Tammie",
    "address": "Kelso",
    "suburb": "Kelso",
    "state": "NSW",
    "postcode": "2795",
    "phone": "",
    "lat": -33.428603100000004,
    "lon": 149.6226256,
    "hours": ""
  },
  {
    "id": "salon-020",
    "name": "Dream Spa",
    "address": "Joondalup",
    "suburb": "Joondalup",
    "state": "WA",
    "postcode": "6027",
    "phone": "",
    "lat": -31.75312155,
    "lon": 115.76107590000001,
    "hours": ""
  },
  {
    "id": "salon-021",
    "name": "Blush Professional Beauty Touch",
    "address": "Sale",
    "suburb": "Sale",
    "state": "VIC",
    "postcode": "3850",
    "phone": "",
    "lat": -38.1069464,
    "lon": 147.0747173,
    "hours": ""
  },
  {
    "id": "salon-022",
    "name": "Skin Sensations Beauty & IPL, Laser Salon",
    "address": "Toowoomba City",
    "suburb": "Toowoomba City",
    "state": "QLD",
    "postcode": "4350",
    "phone": "",
    "lat": -27.5597656,
    "lon": 151.9506378,
    "hours": ""
  },
  {
    "id": "salon-023",
    "name": "Adore for Beauty",
    "address": "Meridan Plains",
    "suburb": "Meridan Plains",
    "state": "QLD",
    "postcode": "4551",
    "phone": "",
    "lat": -26.762570349999997,
    "lon": 153.07755924999998,
    "hours": ""
  },
  {
    "id": "salon-024",
    "name": "Lash Hair n Beaute",
    "address": "Cranbourne",
    "suburb": "Cranbourne",
    "state": "VIC",
    "postcode": "3977",
    "phone": "",
    "lat": -38.11277775,
    "lon": 145.2723151,
    "hours": ""
  },
  {
    "id": "salon-025",
    "name": "Skindulgence",
    "address": "Hobart",
    "suburb": "Hobart",
    "state": "TAS",
    "postcode": "7000",
    "phone": "",
    "lat": -42.8823402,
    "lon": 147.32855635,
    "hours": ""
  },
  {
    "id": "salon-026",
    "name": "Sandi's Wax & Beauty",
    "address": "Kallangur",
    "suburb": "Kallangur",
    "state": "QLD",
    "postcode": "4503",
    "phone": "",
    "lat": -27.24756785,
    "lon": 152.99644975,
    "hours": ""
  },
  {
    "id": "salon-027",
    "name": "Studio Beautique",
    "address": "Piara Waters",
    "suburb": "Piara Waters",
    "state": "WA",
    "postcode": "6112",
    "phone": "",
    "lat": -32.13166975,
    "lon": 115.91609520000002,
    "hours": ""
  },
  {
    "id": "salon-028",
    "name": "Chic Nails & Beauty With Style",
    "address": "Unley",
    "suburb": "Unley",
    "state": "SA",
    "postcode": "5061",
    "phone": "",
    "lat": -34.94727794999999,
    "lon": 138.607842,
    "hours": ""
  },
  {
    "id": "salon-029",
    "name": "Lash Bar Australia",
    "address": "Shailer Park",
    "suburb": "Shailer Park",
    "state": "QLD",
    "postcode": "4128",
    "phone": "",
    "lat": -27.650688149999997,
    "lon": 153.17544215,
    "hours": ""
  },
  {
    "id": "salon-030",
    "name": "Portable Pampering",
    "address": "North Ward",
    "suburb": "North Ward",
    "state": "QLD",
    "postcode": "4810",
    "phone": "",
    "lat": -19.248692100000003,
    "lon": 146.8086713,
    "hours": ""
  },
  {
    "id": "salon-031",
    "name": "Bat Your Lash",
    "address": "Prahran",
    "suburb": "Prahran",
    "state": "VIC",
    "postcode": "3181",
    "phone": "",
    "lat": -37.85293005,
    "lon": 144.9982575,
    "hours": ""
  },
  {
    "id": "salon-032",
    "name": "Chakana Avalon Beauty & Wellbeing",
    "address": "Avalon Beach",
    "suburb": "Avalon Beach",
    "state": "NSW",
    "postcode": "2107",
    "phone": "",
    "lat": -33.6290556,
    "lon": 151.32382044999997,
    "hours": ""
  },
  {
    "id": "salon-033",
    "name": "Eisor Hair & Beauty Boutique",
    "address": "Wheelers Hill",
    "suburb": "Wheelers Hill",
    "state": "VIC",
    "postcode": "3150",
    "phone": "",
    "lat": -37.90732495,
    "lon": 145.18447465,
    "hours": ""
  },
  {
    "id": "salon-034",
    "name": "SB Beauty",
    "address": "Fairfield",
    "suburb": "Fairfield",
    "state": "NSW",
    "postcode": "2165",
    "phone": "",
    "lat": -33.86904475,
    "lon": 150.9510356,
    "hours": ""
  },
  {
    "id": "salon-035",
    "name": "Esha Skin and Body",
    "address": "Maroochydore",
    "suburb": "Maroochydore",
    "state": "QLD",
    "postcode": "4558",
    "phone": "",
    "lat": -26.655197899999997,
    "lon": 153.07573295,
    "hours": ""
  },
  {
    "id": "salon-036",
    "name": "Marilyn's Accent On Beauty",
    "address": "The Junction",
    "suburb": "The Junction",
    "state": "NSW",
    "postcode": "2291",
    "phone": "",
    "lat": -32.938110550000005,
    "lon": 151.75963205,
    "hours": ""
  },
  {
    "id": "salon-037",
    "name": "The Girl You Love",
    "address": "Glebe",
    "suburb": "Glebe",
    "state": "NSW",
    "postcode": "2037",
    "phone": "",
    "lat": -33.8778562,
    "lon": 151.18625784999998,
    "hours": ""
  },
  {
    "id": "salon-038",
    "name": "Me-More Beauty Clinic",
    "address": "Fremantle",
    "suburb": "Fremantle",
    "state": "WA",
    "postcode": "6160",
    "phone": "",
    "lat": -32.05256315,
    "lon": 115.75595979999999,
    "hours": ""
  },
  {
    "id": "salon-039",
    "name": "Absolutely Fabulous Makeovers",
    "address": "Southport",
    "suburb": "Southport",
    "state": "QLD",
    "postcode": "4215",
    "phone": "",
    "lat": -27.966465499999998,
    "lon": 153.3986912,
    "hours": ""
  },
  {
    "id": "salon-040",
    "name": "Caltalara Beauty",
    "address": "Brighton",
    "suburb": "Brighton",
    "state": "QLD",
    "postcode": "4017",
    "phone": "",
    "lat": -27.2962586,
    "lon": 153.05513495,
    "hours": ""
  },
  {
    "id": "salon-041",
    "name": "Beauty Studio The",
    "address": "Annandale",
    "suburb": "Annandale",
    "state": "QLD",
    "postcode": "4814",
    "phone": "",
    "lat": -19.309386099999998,
    "lon": 146.78691449999997,
    "hours": ""
  },
  {
    "id": "salon-042",
    "name": "Sue Roach Nutrimetics",
    "address": "Port Macquarie",
    "suburb": "Port Macquarie",
    "state": "NSW",
    "postcode": "2444",
    "phone": "",
    "lat": -31.461215250000006,
    "lon": 152.89319390000003,
    "hours": ""
  },
  {
    "id": "salon-043",
    "name": "Coukla's - \"To Be A Beautiful Doll\"",
    "address": "Orange",
    "suburb": "Orange",
    "state": "NSW",
    "postcode": "2800",
    "phone": "",
    "lat": -33.2509669,
    "lon": 149.0617663,
    "hours": ""
  },
  {
    "id": "salon-044",
    "name": "Daniela's Professional Beauty Therapy",
    "address": "Balmain",
    "suburb": "Balmain",
    "state": "NSW",
    "postcode": "2041",
    "phone": "",
    "lat": -33.8583275,
    "lon": 151.18069365,
    "hours": ""
  },
  {
    "id": "salon-045",
    "name": "I Style You Beauty",
    "address": "Werribee",
    "suburb": "Werribee",
    "state": "VIC",
    "postcode": "3030",
    "phone": "",
    "lat": -37.90781810000001,
    "lon": 144.64895605,
    "hours": ""
  },
  {
    "id": "salon-046",
    "name": "Mii Studio",
    "address": "Miami",
    "suburb": "Miami",
    "state": "QLD",
    "postcode": "4220",
    "phone": "",
    "lat": -28.0690508,
    "lon": 153.43595935,
    "hours": ""
  },
  {
    "id": "salon-047",
    "name": "The Beauty Room",
    "address": "Mosman",
    "suburb": "Mosman",
    "state": "NSW",
    "postcode": "2088",
    "phone": "",
    "lat": -33.82833360000001,
    "lon": 151.24861819999998,
    "hours": ""
  },
  {
    "id": "salon-048",
    "name": "Elle Urban Retreat",
    "address": "Taylors Hill",
    "suburb": "Taylors Hill",
    "state": "VIC",
    "postcode": "3037",
    "phone": "",
    "lat": -37.71488675,
    "lon": 144.7533236,
    "hours": ""
  },
  {
    "id": "salon-049",
    "name": "Madame Beautifuls",
    "address": "Taylors Lakes",
    "suburb": "Taylors Lakes",
    "state": "VIC",
    "postcode": "3038",
    "phone": "",
    "lat": -37.696691099999995,
    "lon": 144.788659,
    "hours": ""
  },
  {
    "id": "salon-050",
    "name": "Refresh City Day Spa",
    "address": "Cairns City",
    "suburb": "Cairns City",
    "state": "QLD",
    "postcode": "4870",
    "phone": "",
    "lat": -16.924282,
    "lon": 145.77442199999996,
    "hours": ""
  },
  {
    "id": "salon-051",
    "name": "Vanilla Face & Body Spa",
    "address": "Scarborough",
    "suburb": "Scarborough",
    "state": "WA",
    "postcode": "6019",
    "phone": "",
    "lat": -31.89583105,
    "lon": 115.76506439999999,
    "hours": ""
  },
  {
    "id": "salon-052",
    "name": "Biosculpture South Australia",
    "address": "North Adelaide",
    "suburb": "North Adelaide",
    "state": "SA",
    "postcode": "5006",
    "phone": "",
    "lat": -34.90905345,
    "lon": 138.59474945,
    "hours": ""
  },
  {
    "id": "salon-053",
    "name": "Love Those Lashes",
    "address": "Paddington",
    "suburb": "Paddington",
    "state": "NSW",
    "postcode": "2021",
    "phone": "",
    "lat": -33.8833445,
    "lon": 151.2279038,
    "hours": ""
  },
  {
    "id": "salon-054",
    "name": "The Hair & Beauty Shop of Bendigo",
    "address": "Bendigo",
    "suburb": "Bendigo",
    "state": "VIC",
    "postcode": "3550",
    "phone": "",
    "lat": -36.75617985,
    "lon": 144.28015195,
    "hours": ""
  },
  {
    "id": "salon-055",
    "name": "Mudgee Aesthetics",
    "address": "Mudgee",
    "suburb": "Mudgee",
    "state": "NSW",
    "postcode": "2850",
    "phone": "",
    "lat": -32.6126581,
    "lon": 149.57811775,
    "hours": ""
  },
  {
    "id": "salon-056",
    "name": "Brazilians Beach & Beauty",
    "address": "Seaford",
    "suburb": "Seaford",
    "state": "VIC",
    "postcode": "3198",
    "phone": "",
    "lat": -38.10624075,
    "lon": 145.14216765,
    "hours": ""
  },
  {
    "id": "salon-057",
    "name": "Adelaide Plastic Surgery Associates",
    "address": "Adelaide",
    "suburb": "Adelaide",
    "state": "SA",
    "postcode": "5000",
    "phone": "",
    "lat": -34.9257512,
    "lon": 138.60075289999997,
    "hours": ""
  },
  {
    "id": "salon-058",
    "name": "BIO Beauty Inside Out",
    "address": "Edgecliff",
    "suburb": "Edgecliff",
    "state": "NSW",
    "postcode": "2027",
    "phone": "",
    "lat": -33.87969445,
    "lon": 151.2359771,
    "hours": ""
  },
  {
    "id": "salon-059",
    "name": "Laiba's Hair Beauty Body & Skin",
    "address": "Port Melbourne",
    "suburb": "Port Melbourne",
    "state": "VIC",
    "postcode": "3207",
    "phone": "",
    "lat": -37.83454115,
    "lon": 144.923369,
    "hours": ""
  },
  {
    "id": "salon-060",
    "name": "Lush Beauty Therapy",
    "address": "Mansfield",
    "suburb": "Mansfield",
    "state": "QLD",
    "postcode": "4122",
    "phone": "",
    "lat": -27.53284355,
    "lon": 153.10614095,
    "hours": ""
  },
  {
    "id": "salon-061",
    "name": "House Of Samara",
    "address": "Allambie Heights",
    "suburb": "Allambie Heights",
    "state": "NSW",
    "postcode": "2100",
    "phone": "",
    "lat": -33.7628185,
    "lon": 151.25829185,
    "hours": ""
  },
  {
    "id": "salon-062",
    "name": "Healthy Image Beauty Massage & Fitness Clinic",
    "address": "Boondall",
    "suburb": "Boondall",
    "state": "QLD",
    "postcode": "4034",
    "phone": "",
    "lat": -27.348223,
    "lon": 153.07148295000002,
    "hours": ""
  },
  {
    "id": "salon-063",
    "name": "My Bespoke Beauty",
    "address": "Southport",
    "suburb": "Southport",
    "state": "QLD",
    "postcode": "4215",
    "phone": "",
    "lat": -27.966465499999998,
    "lon": 153.3986912,
    "hours": ""
  },
  {
    "id": "salon-064",
    "name": "Purity Day Spa",
    "address": "Port Pirie",
    "suburb": "Port Pirie",
    "state": "SA",
    "postcode": "5540",
    "phone": "",
    "lat": -33.1707173,
    "lon": 138.01067429999998,
    "hours": ""
  },
  {
    "id": "salon-065",
    "name": "Kooyong Beauty Therapy",
    "address": "Kooyong",
    "suburb": "Kooyong",
    "state": "VIC",
    "postcode": "3144",
    "phone": "",
    "lat": -37.8410821,
    "lon": 145.03575254999998,
    "hours": ""
  },
  {
    "id": "salon-066",
    "name": "Chase The Sun Tanning AND Beauty",
    "address": "Manly Vale",
    "suburb": "Manly Vale",
    "state": "NSW",
    "postcode": "2093",
    "phone": "",
    "lat": -33.7831553,
    "lon": 151.2660283,
    "hours": ""
  },
  {
    "id": "salon-067",
    "name": "Alivia Nails",
    "address": "Woolloongabba",
    "suburb": "Woolloongabba",
    "state": "QLD",
    "postcode": "4102",
    "phone": "",
    "lat": -27.4928579,
    "lon": 153.03465695000003,
    "hours": ""
  },
  {
    "id": "salon-068",
    "name": "The Perfect Beauty Spot Pty Ltd",
    "address": "Woori Yallock",
    "suburb": "Woori Yallock",
    "state": "VIC",
    "postcode": "3139",
    "phone": "",
    "lat": -37.77955845,
    "lon": 145.54168275000004,
    "hours": ""
  },
  {
    "id": "salon-069",
    "name": "Spray Tan HQ",
    "address": "Petrie",
    "suburb": "Petrie",
    "state": "QLD",
    "postcode": "4502",
    "phone": "",
    "lat": -27.2629001,
    "lon": 152.9750156,
    "hours": ""
  },
  {
    "id": "salon-070",
    "name": "Melb Lashes",
    "address": "Prahran",
    "suburb": "Prahran",
    "state": "VIC",
    "postcode": "3181",
    "phone": "",
    "lat": -37.85293005,
    "lon": 144.9982575,
    "hours": ""
  },
  {
    "id": "salon-071",
    "name": "Pretty Intense",
    "address": "Rosanna",
    "suburb": "Rosanna",
    "state": "VIC",
    "postcode": "3084",
    "phone": "",
    "lat": -37.739843549999996,
    "lon": 145.0708175,
    "hours": ""
  },
  {
    "id": "salon-072",
    "name": "Abode Mobile Beauty",
    "address": "Gungahlin",
    "suburb": "Gungahlin",
    "state": "ACT",
    "postcode": "2912",
    "phone": "",
    "lat": -35.187747300000005,
    "lon": 149.1376349,
    "hours": ""
  },
  {
    "id": "salon-073",
    "name": "Peninsula Hot Springs",
    "address": "Fingal",
    "suburb": "Fingal",
    "state": "VIC",
    "postcode": "3939",
    "phone": "",
    "lat": -38.41977625,
    "lon": 144.85690229999997,
    "hours": ""
  },
  {
    "id": "salon-074",
    "name": "Beaming Beauty",
    "address": "Docklands",
    "suburb": "Docklands",
    "state": "VIC",
    "postcode": "3008",
    "phone": "",
    "lat": -37.81827885,
    "lon": 144.9375872,
    "hours": ""
  },
  {
    "id": "salon-075",
    "name": "L'Or Cosmetics",
    "address": "North Tamworth",
    "suburb": "North Tamworth",
    "state": "NSW",
    "postcode": "2340",
    "phone": "",
    "lat": -31.063841500000002,
    "lon": 150.92741055,
    "hours": ""
  },
  {
    "id": "salon-076",
    "name": "Flash's Hair & Beauty",
    "address": "Ballarat",
    "suburb": "Ballarat",
    "state": "VIC",
    "postcode": "3350",
    "phone": "",
    "lat": -37.58350024999999,
    "lon": 143.84538389999997,
    "hours": ""
  },
  {
    "id": "salon-077",
    "name": "Face Solutions",
    "address": "Southport",
    "suburb": "Southport",
    "state": "QLD",
    "postcode": "4215",
    "phone": "",
    "lat": -27.966465499999998,
    "lon": 153.3986912,
    "hours": ""
  },
  {
    "id": "salon-078",
    "name": "Quintessence Nail & Beauty",
    "address": "Page",
    "suburb": "Page",
    "state": "ACT",
    "postcode": "2614",
    "phone": "",
    "lat": -35.2375912,
    "lon": 149.04948405000002,
    "hours": ""
  },
  {
    "id": "salon-079",
    "name": "Sang Natural Health",
    "address": "Springfield",
    "suburb": "Springfield",
    "state": "QLD",
    "postcode": "4300",
    "phone": "",
    "lat": -27.65571275,
    "lon": 152.90911745,
    "hours": ""
  },
  {
    "id": "salon-080",
    "name": "endota spa Newcastle",
    "address": "Newcastle",
    "suburb": "Newcastle",
    "state": "NSW",
    "postcode": "2300",
    "phone": "",
    "lat": -32.92996965,
    "lon": 151.78214334999996,
    "hours": ""
  },
  {
    "id": "salon-081",
    "name": "Simply Beautiful Beauty Therapy",
    "address": "Bathurst",
    "suburb": "Bathurst",
    "state": "NSW",
    "postcode": "2795",
    "phone": "",
    "lat": -33.41897445,
    "lon": 149.57821449999997,
    "hours": ""
  },
  {
    "id": "salon-082",
    "name": "ibeauty Medispa",
    "address": "Brisbane City",
    "suburb": "Brisbane City",
    "state": "QLD",
    "postcode": "4000",
    "phone": "",
    "lat": -27.4653362,
    "lon": 153.02296005,
    "hours": ""
  },
  {
    "id": "salon-083",
    "name": "Melbourne Laser & Aesthetic Centre",
    "address": "Melbourne",
    "suburb": "Melbourne",
    "state": "VIC",
    "postcode": "3000",
    "phone": "",
    "lat": -37.8112559,
    "lon": 144.96392625,
    "hours": ""
  },
  {
    "id": "salon-084",
    "name": "Created Beautiful",
    "address": "Kingston",
    "suburb": "Kingston",
    "state": "ACT",
    "postcode": "2604",
    "phone": "",
    "lat": -35.3145193,
    "lon": 149.14553204999999,
    "hours": ""
  },
  {
    "id": "salon-085",
    "name": "Jamie Carroll",
    "address": "Sylvania Waters",
    "suburb": "Sylvania Waters",
    "state": "NSW",
    "postcode": "2224",
    "phone": "",
    "lat": -34.0190479,
    "lon": 151.11251275,
    "hours": ""
  },
  {
    "id": "salon-086",
    "name": "Brazilian Butterfly",
    "address": "Port Melbourne",
    "suburb": "Port Melbourne",
    "state": "VIC",
    "postcode": "3207",
    "phone": "",
    "lat": -37.83454115,
    "lon": 144.923369,
    "hours": ""
  },
  {
    "id": "salon-087",
    "name": "Heavenly Bliss Beauty Therapy",
    "address": "Heathmont",
    "suburb": "Heathmont",
    "state": "VIC",
    "postcode": "3135",
    "phone": "",
    "lat": -37.8288461,
    "lon": 145.24586765,
    "hours": ""
  },
  {
    "id": "salon-088",
    "name": "Contours de Femme",
    "address": "Griffith",
    "suburb": "Griffith",
    "state": "ACT",
    "postcode": "2603",
    "phone": "",
    "lat": -35.32651065,
    "lon": 149.1393538,
    "hours": ""
  },
  {
    "id": "salon-089",
    "name": "Finishing Touch Beauty Studio",
    "address": "Windsor",
    "suburb": "Windsor",
    "state": "NSW",
    "postcode": "2756",
    "phone": "",
    "lat": -33.61161744999999,
    "lon": 150.82111755,
    "hours": ""
  },
  {
    "id": "salon-090",
    "name": "Lash & Beauty Lounge",
    "address": "Darwin City",
    "suburb": "Darwin City",
    "state": "NT",
    "postcode": "0800",
    "phone": "",
    "lat": -12.463000899999999,
    "lon": 130.8426151,
    "hours": ""
  },
  {
    "id": "salon-091",
    "name": "Essentially You Body & Soul",
    "address": "Hurstbridge",
    "suburb": "Hurstbridge",
    "state": "VIC",
    "postcode": "3099",
    "phone": "",
    "lat": -37.636992400000004,
    "lon": 145.1967044,
    "hours": ""
  },
  {
    "id": "salon-092",
    "name": "Sharkra Medi Spa",
    "address": "Hobart",
    "suburb": "Hobart",
    "state": "TAS",
    "postcode": "7000",
    "phone": "",
    "lat": -42.8823402,
    "lon": 147.32855635,
    "hours": ""
  },
  {
    "id": "salon-093",
    "name": "Angelic Bliss Hair Beauty Wellbeing",
    "address": "Whyalla Norrie",
    "suburb": "Whyalla Norrie",
    "state": "SA",
    "postcode": "5608",
    "phone": "",
    "lat": -33.0269249,
    "lon": 137.54106955,
    "hours": ""
  },
  {
    "id": "salon-094",
    "name": "Real Beauty",
    "address": "Highett",
    "suburb": "Highett",
    "state": "VIC",
    "postcode": "3190",
    "phone": "",
    "lat": -37.95066445,
    "lon": 145.04006915,
    "hours": ""
  },
  {
    "id": "salon-095",
    "name": "Vani-T Emporium Medi Spa",
    "address": "Glenelg",
    "suburb": "Glenelg",
    "state": "SA",
    "postcode": "5045",
    "phone": "",
    "lat": -34.98014834999999,
    "lon": 138.51414325,
    "hours": ""
  },
  {
    "id": "salon-096",
    "name": "Mud Me Beauty",
    "address": "Wollongong",
    "suburb": "Wollongong",
    "state": "NSW",
    "postcode": "2500",
    "phone": "",
    "lat": -34.42825265,
    "lon": 150.8930585,
    "hours": ""
  },
  {
    "id": "salon-097",
    "name": "Ella Bach√© Coomera",
    "address": "Upper Coomera",
    "suburb": "Upper Coomera",
    "state": "QLD",
    "postcode": "4209",
    "phone": "",
    "lat": -27.87812635,
    "lon": 153.28283815,
    "hours": ""
  },
  {
    "id": "salon-098",
    "name": "Natural Image - Hair Wax Tan",
    "address": "Fyshwick",
    "suburb": "Fyshwick",
    "state": "ACT",
    "postcode": "2609",
    "phone": "",
    "lat": -35.322289749999996,
    "lon": 149.17070324999997,
    "hours": ""
  },
  {
    "id": "salon-099",
    "name": "Beaute - The Facial Destination",
    "address": "Doncaster",
    "suburb": "Doncaster",
    "state": "VIC",
    "postcode": "3108",
    "phone": "",
    "lat": -37.782841899999994,
    "lon": 145.12239135,
    "hours": ""
  },
  {
    "id": "salon-100",
    "name": "La Bella Beauty & Spa",
    "address": "Parkes",
    "suburb": "Parkes",
    "state": "NSW",
    "postcode": "2870",
    "phone": "",
    "lat": -33.110745800000004,
    "lon": 148.25544385,
    "hours": ""
  },
  {
    "id": "salon-101",
    "name": "Beauty Mechanics",
    "address": "Beenleigh",
    "suburb": "Beenleigh",
    "state": "QLD",
    "postcode": "4207",
    "phone": "",
    "lat": -27.712825749999997,
    "lon": 153.1970826,
    "hours": ""
  },
  {
    "id": "salon-102",
    "name": "In Flow Beauty And Mind",
    "address": "Morley",
    "suburb": "Morley",
    "state": "WA",
    "postcode": "6062",
    "phone": "",
    "lat": -31.88984175,
    "lon": 115.90672735,
    "hours": ""
  },
  {
    "id": "salon-103",
    "name": "Riana's Health & Skincare Clinic",
    "address": "Greenway",
    "suburb": "Greenway",
    "state": "ACT",
    "postcode": "2900",
    "phone": "",
    "lat": -35.41535954999999,
    "lon": 149.06465680000002,
    "hours": ""
  },
  {
    "id": "salon-104",
    "name": "Essential Beauty Chadstone",
    "address": "Malvern East",
    "suburb": "Malvern East",
    "state": "VIC",
    "postcode": "3145",
    "phone": "",
    "lat": -37.87822355,
    "lon": 145.06463255000003,
    "hours": ""
  },
  {
    "id": "salon-105",
    "name": "Essential Beauty Southland",
    "address": "Cheltenham",
    "suburb": "Cheltenham",
    "state": "VIC",
    "postcode": "3192",
    "phone": "",
    "lat": -37.9619554,
    "lon": 145.06012035,
    "hours": ""
  },
  {
    "id": "salon-106",
    "name": "Essential Beauty Highpoint",
    "address": "Maribyrnong",
    "suburb": "Maribyrnong",
    "state": "VIC",
    "postcode": "3032",
    "phone": "",
    "lat": -37.77241795,
    "lon": 144.8873443,
    "hours": ""
  },
  {
    "id": "salon-107",
    "name": "Essential Beauty Carousel",
    "address": "Cannington",
    "suburb": "Cannington",
    "state": "WA",
    "postcode": "6107",
    "phone": "",
    "lat": -32.016037049999994,
    "lon": 115.93668424999997,
    "hours": ""
  },
  {
    "id": "salon-108",
    "name": "Essential Beauty Midland Gate",
    "address": "Midland",
    "suburb": "Midland",
    "state": "WA",
    "postcode": "6056",
    "phone": "",
    "lat": -31.891732349999998,
    "lon": 116.00973685,
    "hours": ""
  },
  {
    "id": "salon-109",
    "name": "Cosmetic tattooing Sydney",
    "address": "Sydney",
    "suburb": "Sydney",
    "state": "NSW",
    "postcode": "2000",
    "phone": "",
    "lat": -33.869662399999996,
    "lon": 151.20997995000002,
    "hours": ""
  },
  {
    "id": "salon-110",
    "name": "Therabeautic",
    "address": "Killarney Heights",
    "suburb": "Killarney Heights",
    "state": "NSW",
    "postcode": "2087",
    "phone": "",
    "lat": -33.76678685,
    "lon": 151.21464799999998,
    "hours": ""
  },
  {
    "id": "salon-111",
    "name": "Mandala Beauty",
    "address": "Croydon",
    "suburb": "Croydon",
    "state": "VIC",
    "postcode": "3136",
    "phone": "",
    "lat": -37.7913362,
    "lon": 145.28149755,
    "hours": ""
  },
  {
    "id": "salon-112",
    "name": "Skin Face Body Clinic",
    "address": "Wantirna",
    "suburb": "Wantirna",
    "state": "VIC",
    "postcode": "3152",
    "phone": "",
    "lat": -37.85342215,
    "lon": 145.2244887,
    "hours": ""
  },
  {
    "id": "salon-113",
    "name": "Nirvana Beauty Laser Clinics",
    "address": "Burwood",
    "suburb": "Burwood",
    "state": "NSW",
    "postcode": "2134",
    "phone": "",
    "lat": -33.878387849999996,
    "lon": 151.1041198,
    "hours": ""
  },
  {
    "id": "salon-114",
    "name": "Advanced Skin Care Clinic",
    "address": "Jindalee",
    "suburb": "Jindalee",
    "state": "QLD",
    "postcode": "4074",
    "phone": "",
    "lat": -27.535424349999996,
    "lon": 152.93840914999998,
    "hours": ""
  },
  {
    "id": "salon-115",
    "name": "IRIS NAILS and BEAUTY",
    "address": "Campbelltown",
    "suburb": "Campbelltown",
    "state": "NSW",
    "postcode": "2560",
    "phone": "",
    "lat": -34.06436289999999,
    "lon": 150.8048336,
    "hours": ""
  },
  {
    "id": "salon-116",
    "name": "Amy's Beauty Biz",
    "address": "Camillo",
    "suburb": "Camillo",
    "state": "WA",
    "postcode": "6111",
    "phone": "",
    "lat": -32.111568,
    "lon": 116.00093215,
    "hours": ""
  },
  {
    "id": "salon-117",
    "name": "La Bella Health & Beauty",
    "address": "Forest Lake",
    "suburb": "Forest Lake",
    "state": "QLD",
    "postcode": "4078",
    "phone": "",
    "lat": -27.62095395,
    "lon": 152.95478899999998,
    "hours": ""
  },
  {
    "id": "salon-118",
    "name": "Beauty By Design Day Spa",
    "address": "Drouin",
    "suburb": "Drouin",
    "state": "VIC",
    "postcode": "3818",
    "phone": "",
    "lat": -38.14300665,
    "lon": 145.8403821,
    "hours": ""
  },
  {
    "id": "salon-119",
    "name": "Fresh Face Beauty & Brow",
    "address": "Reservoir",
    "suburb": "Reservoir",
    "state": "VIC",
    "postcode": "3073",
    "phone": "",
    "lat": -37.71238605,
    "lon": 145.00557295,
    "hours": ""
  },
  {
    "id": "salon-120",
    "name": "Marianna's Beauty Studio",
    "address": "Wangaratta",
    "suburb": "Wangaratta",
    "state": "VIC",
    "postcode": "3677",
    "phone": "",
    "lat": -36.3653624,
    "lon": 146.31853195,
    "hours": ""
  },
  {
    "id": "salon-121",
    "name": "Beauty Nirvana",
    "address": "Camberwell",
    "suburb": "Camberwell",
    "state": "VIC",
    "postcode": "3124",
    "phone": "",
    "lat": -37.83563779999999,
    "lon": 145.0758472,
    "hours": ""
  },
  {
    "id": "salon-122",
    "name": "Oh Darling Beauty",
    "address": "Mangerton",
    "suburb": "Mangerton",
    "state": "NSW",
    "postcode": "2500",
    "phone": "",
    "lat": -34.432700149999995,
    "lon": 150.87354395,
    "hours": ""
  },
  {
    "id": "salon-123",
    "name": "Mills Street Advanced Skin & Beauty Clinic",
    "address": "Albert Park",
    "suburb": "Albert Park",
    "state": "VIC",
    "postcode": "3206",
    "phone": "",
    "lat": -37.847372199999995,
    "lon": 144.96087224999997,
    "hours": ""
  },
  {
    "id": "salon-124",
    "name": "Aberdeen Cottage",
    "address": "Geelong West",
    "suburb": "Geelong West",
    "state": "VIC",
    "postcode": "3218",
    "phone": "",
    "lat": -38.1390463,
    "lon": 144.34474894999997,
    "hours": ""
  },
  {
    "id": "salon-125",
    "name": "Amy-Jean Brows",
    "address": "Sydney",
    "suburb": "Sydney",
    "state": "NSW",
    "postcode": "2000",
    "phone": "",
    "lat": -33.869662399999996,
    "lon": 151.20997995000002,
    "hours": ""
  },
  {
    "id": "salon-126",
    "name": "Supreme Beauty",
    "address": "Flagstaff Hill",
    "suburb": "Flagstaff Hill",
    "state": "SA",
    "postcode": "5159",
    "phone": "",
    "lat": -35.048318249999994,
    "lon": 138.58929104999999,
    "hours": ""
  },
  {
    "id": "salon-127",
    "name": "Allure Laser & Beauty Salon",
    "address": "Roxburgh Park",
    "suburb": "Roxburgh Park",
    "state": "VIC",
    "postcode": "3064",
    "phone": "",
    "lat": -37.62574215000001,
    "lon": 144.92544295,
    "hours": ""
  },
  {
    "id": "salon-128",
    "name": "Four Seasons Boutique",
    "address": "Craigieburn",
    "suburb": "Craigieburn",
    "state": "VIC",
    "postcode": "3064",
    "phone": "",
    "lat": -37.581376999999996,
    "lon": 144.92254430000003,
    "hours": ""
  },
  {
    "id": "salon-129",
    "name": "Essential Beauty Innaloo",
    "address": "Innaloo",
    "suburb": "Innaloo",
    "state": "WA",
    "postcode": "6018",
    "phone": "",
    "lat": -31.89342625,
    "lon": 115.79694895,
    "hours": ""
  },
  {
    "id": "salon-130",
    "name": "Essential Beauty Rockingham",
    "address": "Rockingham",
    "suburb": "Rockingham",
    "state": "WA",
    "postcode": "6168",
    "phone": "",
    "lat": -32.2798456,
    "lon": 115.74372825,
    "hours": ""
  },
  {
    "id": "salon-131",
    "name": "Elysium Skin Studio",
    "address": "Caves Beach",
    "suburb": "Caves Beach",
    "state": "NSW",
    "postcode": "2281",
    "phone": "",
    "lat": -33.1091049,
    "lon": 151.6456585,
    "hours": ""
  },
  {
    "id": "salon-132",
    "name": "Relax & Refresh Beauty Salon",
    "address": "Bardon",
    "suburb": "Bardon",
    "state": "QLD",
    "postcode": "4065",
    "phone": "",
    "lat": -27.4597404,
    "lon": 152.97634405,
    "hours": ""
  },
  {
    "id": "salon-133",
    "name": "Beauty with Perfection",
    "address": "Toowoomba City",
    "suburb": "Toowoomba City",
    "state": "QLD",
    "postcode": "4350",
    "phone": "",
    "lat": -27.5597656,
    "lon": 151.9506378,
    "hours": ""
  },
  {
    "id": "salon-134",
    "name": "Beyond Beauty International",
    "address": "Surfers Paradise",
    "suburb": "Surfers Paradise",
    "state": "QLD",
    "postcode": "4217",
    "phone": "",
    "lat": -27.9802771,
    "lon": 153.3988774,
    "hours": ""
  },
  {
    "id": "salon-135",
    "name": "Creative Nail & Waxing",
    "address": "Shepparton",
    "suburb": "Shepparton",
    "state": "VIC",
    "postcode": "3630",
    "phone": "",
    "lat": -36.37339479999999,
    "lon": 145.39191985,
    "hours": ""
  },
  {
    "id": "salon-136",
    "name": "Admire Skincare and Beauty",
    "address": "Taree",
    "suburb": "Taree",
    "state": "NSW",
    "postcode": "2430",
    "phone": "",
    "lat": -31.89158475,
    "lon": 152.45546725,
    "hours": ""
  },
  {
    "id": "salon-137",
    "name": "Beauty On The Promenade",
    "address": "Coffs Harbour",
    "suburb": "Coffs Harbour",
    "state": "NSW",
    "postcode": "2450",
    "phone": "",
    "lat": -30.308397000000003,
    "lon": 153.1073475,
    "hours": ""
  },
  {
    "id": "salon-138",
    "name": "Jedore Beauty Bliss",
    "address": "Portland",
    "suburb": "Portland",
    "state": "VIC",
    "postcode": "3305",
    "phone": "",
    "lat": -38.3635429,
    "lon": 141.6084912,
    "hours": ""
  },
  {
    "id": "salon-139",
    "name": "O'Some Brows",
    "address": "Glen Waverley",
    "suburb": "Glen Waverley",
    "state": "VIC",
    "postcode": "3150",
    "phone": "",
    "lat": -37.88232209999999,
    "lon": 145.1716242,
    "hours": ""
  },
  {
    "id": "salon-140",
    "name": "Essential Beauty Warwick",
    "address": "Warwick",
    "suburb": "Warwick",
    "state": "WA",
    "postcode": "6024",
    "phone": "",
    "lat": -31.839687400000006,
    "lon": 115.80835364999999,
    "hours": ""
  },
  {
    "id": "salon-141",
    "name": "Indulge Your Beauty",
    "address": "Munno Para",
    "suburb": "Munno Para",
    "state": "SA",
    "postcode": "5115",
    "phone": "",
    "lat": -34.665746649999996,
    "lon": 138.68995195,
    "hours": ""
  },
  {
    "id": "salon-142",
    "name": "Tranquility Beauty Body Soul",
    "address": "Keysborough",
    "suburb": "Keysborough",
    "state": "VIC",
    "postcode": "3173",
    "phone": "",
    "lat": -38.00637645,
    "lon": 145.1660049,
    "hours": ""
  },
  {
    "id": "salon-143",
    "name": "The Sugar Shak",
    "address": "Port Macquarie",
    "suburb": "Port Macquarie",
    "state": "NSW",
    "postcode": "2444",
    "phone": "",
    "lat": -31.461215250000006,
    "lon": 152.89319390000003,
    "hours": ""
  },
  {
    "id": "salon-144",
    "name": "Queen Victoria Beauty Salon",
    "address": "North Fremantle",
    "suburb": "North Fremantle",
    "state": "WA",
    "postcode": "6159",
    "phone": "",
    "lat": -32.03761299999999,
    "lon": 115.74236959999999,
    "hours": ""
  },
  {
    "id": "salon-145",
    "name": "Beauty Advantage",
    "address": "Cooma",
    "suburb": "Cooma",
    "state": "NSW",
    "postcode": "2630",
    "phone": "",
    "lat": -36.2482,
    "lon": 149.11265279999998,
    "hours": ""
  },
  {
    "id": "salon-146",
    "name": "Essential Beauty & Piercing Unley",
    "address": "Unley",
    "suburb": "Unley",
    "state": "SA",
    "postcode": "5061",
    "phone": "",
    "lat": -34.94727794999999,
    "lon": 138.607842,
    "hours": ""
  },
  {
    "id": "salon-147",
    "name": "Gloss Makeup & Beauty Studio",
    "address": "Wangaratta",
    "suburb": "Wangaratta",
    "state": "VIC",
    "postcode": "3677",
    "phone": "",
    "lat": -36.3653624,
    "lon": 146.31853195,
    "hours": ""
  },
  {
    "id": "salon-148",
    "name": "Ella Bache Cairns",
    "address": "Cairns City",
    "suburb": "Cairns City",
    "state": "QLD",
    "postcode": "4870",
    "phone": "",
    "lat": -16.924282,
    "lon": 145.77442199999996,
    "hours": ""
  },
  {
    "id": "salon-149",
    "name": "Beauty Spot At The Square",
    "address": "Lismore",
    "suburb": "Lismore",
    "state": "NSW",
    "postcode": "2480",
    "phone": "",
    "lat": -28.818989199999994,
    "lon": 153.29499614999997,
    "hours": ""
  },
  {
    "id": "salon-150",
    "name": "Many Faces Beauty Therapy Clinic",
    "address": "Warragul",
    "suburb": "Warragul",
    "state": "VIC",
    "postcode": "3820",
    "phone": "",
    "lat": -38.162752,
    "lon": 145.93533645,
    "hours": ""
  },
  {
    "id": "salon-151",
    "name": "Angels By Nature",
    "address": "Harvey",
    "suburb": "Harvey",
    "state": "WA",
    "postcode": "6220",
    "phone": "",
    "lat": -33.0743448,
    "lon": 115.91655149999998,
    "hours": ""
  },
  {
    "id": "salon-152",
    "name": "Saanvi Beauty And Hair Salon",
    "address": "Kilkenny",
    "suburb": "Kilkenny",
    "state": "SA",
    "postcode": "5009",
    "phone": "",
    "lat": -34.88094845,
    "lon": 138.55301024999997,
    "hours": ""
  },
  {
    "id": "salon-153",
    "name": "Essential Beauty Bunbury",
    "address": "South Bunbury",
    "suburb": "South Bunbury",
    "state": "WA",
    "postcode": "6230",
    "phone": "",
    "lat": -33.34963485,
    "lon": 115.635762,
    "hours": ""
  },
  {
    "id": "salon-154",
    "name": "Essential Beauty & Piercing Hollywood Plaza",
    "address": "Salisbury Downs",
    "suburb": "Salisbury Downs",
    "state": "SA",
    "postcode": "5108",
    "phone": "",
    "lat": -34.772288849999995,
    "lon": 138.62315990000002,
    "hours": ""
  },
  {
    "id": "salon-155",
    "name": "Essential Beauty & Piercing Ingle Farm",
    "address": "Ingle Farm",
    "suburb": "Ingle Farm",
    "state": "SA",
    "postcode": "5098",
    "phone": "",
    "lat": -34.826135449999995,
    "lon": 138.64419035,
    "hours": ""
  },
  {
    "id": "salon-156",
    "name": "Essential Beauty & Piercing Arndale",
    "address": "Kilkenny",
    "suburb": "Kilkenny",
    "state": "SA",
    "postcode": "5009",
    "phone": "",
    "lat": -34.88094845,
    "lon": 138.55301024999997,
    "hours": ""
  },
  {
    "id": "salon-157",
    "name": "Essential Beauty & Piercing Tea Tree Plaza",
    "address": "Modbury",
    "suburb": "Modbury",
    "state": "SA",
    "postcode": "5092",
    "phone": "",
    "lat": -34.8361712,
    "lon": 138.68439730000003,
    "hours": ""
  },
  {
    "id": "salon-158",
    "name": "Beauty By Jess",
    "address": "Wollongong",
    "suburb": "Wollongong",
    "state": "NSW",
    "postcode": "2500",
    "phone": "",
    "lat": -34.42825265,
    "lon": 150.8930585,
    "hours": ""
  },
  {
    "id": "salon-159",
    "name": "Beauty By Beck",
    "address": "114 Railway St, Corrimal",
    "suburb": "Corrimal",
    "state": "NSW",
    "postcode": "2518",
    "phone": "",
    "lat": -34.3728322,
    "lon": 150.8961244,
    "hours": ""
  },
  {
    "id": "salon-160",
    "name": "New Beauty In Manjimup",
    "address": "110 Giblett St, Manjimup",
    "suburb": "Manjimup",
    "state": "WA",
    "postcode": "6258",
    "phone": "",
    "lat": -34.239802499999996,
    "lon": 116.1476179,
    "hours": ""
  },
  {
    "id": "salon-161",
    "name": "Carolyn's Professional Beauty Touch",
    "address": "Sale",
    "suburb": "Sale",
    "state": "VIC",
    "postcode": "3850",
    "phone": "",
    "lat": -38.1069464,
    "lon": 147.0747173,
    "hours": ""
  },
  {
    "id": "salon-162",
    "name": "Acrylic Nail Studio",
    "address": "Geilston Bay",
    "suburb": "Geilston Bay",
    "state": "TAS",
    "postcode": "7015",
    "phone": "",
    "lat": -42.82929695,
    "lon": 147.34922755,
    "hours": ""
  },
  {
    "id": "salon-163",
    "name": "Annabells Beauty Room",
    "address": "Gray",
    "suburb": "Gray",
    "state": "NT",
    "postcode": "0830",
    "phone": "",
    "lat": -12.490492,
    "lon": 130.98174934999997,
    "hours": ""
  },
  {
    "id": "salon-164",
    "name": "Linda's Beauty Therapy",
    "address": "Myrtle Bank",
    "suburb": "Myrtle Bank",
    "state": "SA",
    "postcode": "5064",
    "phone": "",
    "lat": -34.9604204,
    "lon": 138.6350633,
    "hours": ""
  },
  {
    "id": "salon-165",
    "name": "Zubias Threading",
    "address": "Perth",
    "suburb": "Perth",
    "state": "WA",
    "postcode": "6000",
    "phone": "",
    "lat": -31.951340000000002,
    "lon": 115.85839500000002,
    "hours": ""
  },
  {
    "id": "salon-166",
    "name": "Barely There",
    "address": "Thurgoona",
    "suburb": "Thurgoona",
    "state": "NSW",
    "postcode": "2640",
    "phone": "",
    "lat": -36.054762499999995,
    "lon": 146.98850315,
    "hours": ""
  },
  {
    "id": "salon-167",
    "name": "Natural Health Beauty & Spa",
    "address": "Enfield",
    "suburb": "Enfield",
    "state": "NSW",
    "postcode": "2136",
    "phone": "",
    "lat": -33.89004035,
    "lon": 151.09603084999998,
    "hours": ""
  },
  {
    "id": "salon-168",
    "name": "Adnama Beauty",
    "address": "Lorn",
    "suburb": "Lorn",
    "state": "NSW",
    "postcode": "2320",
    "phone": "",
    "lat": -32.72748635,
    "lon": 151.57199014999998,
    "hours": ""
  },
  {
    "id": "salon-169",
    "name": "Body Junction Skin & Body Therapy",
    "address": "Plympton Park",
    "suburb": "Plympton Park",
    "state": "SA",
    "postcode": "5038",
    "phone": "",
    "lat": -34.97503315,
    "lon": 138.55135725,
    "hours": ""
  },
  {
    "id": "salon-170",
    "name": "Sandra's Beauty Salon",
    "address": "Blaxland",
    "suburb": "Blaxland",
    "state": "NSW",
    "postcode": "2774",
    "phone": "",
    "lat": -33.7354587,
    "lon": 150.62055439999997,
    "hours": ""
  },
  {
    "id": "salon-171",
    "name": "Ella Bache Yarrawonga",
    "address": "Yarrawonga",
    "suburb": "Yarrawonga",
    "state": "VIC",
    "postcode": "3730",
    "phone": "",
    "lat": -36.03089605,
    "lon": 146.00796344999998,
    "hours": ""
  },
  {
    "id": "salon-172",
    "name": "Complexions On Billson Beauty Clinic",
    "address": "Wonthaggi",
    "suburb": "Wonthaggi",
    "state": "VIC",
    "postcode": "3995",
    "phone": "",
    "lat": -38.6188754,
    "lon": 145.59363679999998,
    "hours": ""
  },
  {
    "id": "salon-173",
    "name": "Hairfree Centre",
    "address": "Darwin City",
    "suburb": "Darwin City",
    "state": "NT",
    "postcode": "0800",
    "phone": "",
    "lat": -12.463000899999999,
    "lon": 130.8426151,
    "hours": ""
  },
  {
    "id": "salon-174",
    "name": "Body Essentials at Studio 500",
    "address": "Cammeray",
    "suburb": "Cammeray",
    "state": "NSW",
    "postcode": "2062",
    "phone": "",
    "lat": -33.822769550000004,
    "lon": 151.21526605,
    "hours": ""
  },
  {
    "id": "salon-175",
    "name": "Phoenix Beauty Therapy",
    "address": "Beaumaris",
    "suburb": "Beaumaris",
    "state": "VIC",
    "postcode": "3193",
    "phone": "",
    "lat": -37.98361365,
    "lon": 145.03901535000003,
    "hours": ""
  },
  {
    "id": "salon-176",
    "name": "East Coast Laser And Cosmetic Clinic",
    "address": "Port Macquarie",
    "suburb": "Port Macquarie",
    "state": "NSW",
    "postcode": "2444",
    "phone": "",
    "lat": -31.461215250000006,
    "lon": 152.89319390000003,
    "hours": ""
  },
  {
    "id": "salon-177",
    "name": "Rejuvenate & Rewind Skin Body",
    "address": "Tugun",
    "suburb": "Tugun",
    "state": "QLD",
    "postcode": "4224",
    "phone": "",
    "lat": -28.149203749999998,
    "lon": 153.49146474999998,
    "hours": ""
  },
  {
    "id": "salon-178",
    "name": "Brazilian Butterfly",
    "address": "Carlton North",
    "suburb": "Carlton North",
    "state": "VIC",
    "postcode": "3054",
    "phone": "",
    "lat": -37.7856343,
    "lon": 144.96851089999998,
    "hours": ""
  },
  {
    "id": "salon-179",
    "name": "Michele's Beauty & Holistic Therapies",
    "address": "Algester",
    "suburb": "Algester",
    "state": "QLD",
    "postcode": "4115",
    "phone": "",
    "lat": -27.61308065,
    "lon": 153.03283245,
    "hours": ""
  },
  {
    "id": "salon-180",
    "name": "Sydney Permanent Make-Up Centre",
    "address": "Five Dock",
    "suburb": "Five Dock",
    "state": "NSW",
    "postcode": "2046",
    "phone": "",
    "lat": -33.866397799999994,
    "lon": 151.1268445,
    "hours": ""
  },
  {
    "id": "salon-181",
    "name": "Skin Review",
    "address": "South Perth",
    "suburb": "South Perth",
    "state": "WA",
    "postcode": "6151",
    "phone": "",
    "lat": -31.976401900000003,
    "lon": 115.86404364999999,
    "hours": ""
  },
  {
    "id": "salon-182",
    "name": "In Therapy",
    "address": "Red Hill",
    "suburb": "Red Hill",
    "state": "QLD",
    "postcode": "4059",
    "phone": "",
    "lat": -27.45221725,
    "lon": 153.0029902,
    "hours": ""
  },
  {
    "id": "salon-183",
    "name": "Erase Skin Treatment Studio",
    "address": "Malvern",
    "suburb": "Malvern",
    "state": "VIC",
    "postcode": "3144",
    "phone": "",
    "lat": -37.85512885,
    "lon": 145.03533935,
    "hours": ""
  },
  {
    "id": "salon-184",
    "name": "Mackay Mobile Tanning",
    "address": "East Mackay",
    "suburb": "East Mackay",
    "state": "QLD",
    "postcode": "4740",
    "phone": "",
    "lat": -21.154481549999996,
    "lon": 149.20223719999998,
    "hours": ""
  },
  {
    "id": "salon-185",
    "name": "endota spa Albury",
    "address": "Albury",
    "suburb": "Albury",
    "state": "NSW",
    "postcode": "2640",
    "phone": "",
    "lat": -36.07344200000001,
    "lon": 146.9159793,
    "hours": ""
  },
  {
    "id": "salon-186",
    "name": "Terry White Chemists Lavington",
    "address": "Lavington",
    "suburb": "Lavington",
    "state": "NSW",
    "postcode": "2641",
    "phone": "",
    "lat": -36.02909385,
    "lon": 146.9358532,
    "hours": ""
  },
  {
    "id": "salon-187",
    "name": "Linda's Beauty On Buderim",
    "address": "Buderim",
    "suburb": "Buderim",
    "state": "QLD",
    "postcode": "4556",
    "phone": "",
    "lat": -26.6879763,
    "lon": 153.06308275,
    "hours": ""
  },
  {
    "id": "salon-188",
    "name": "Timeout For You Skin Management Centre",
    "address": "Ashgrove",
    "suburb": "Ashgrove",
    "state": "QLD",
    "postcode": "4060",
    "phone": "",
    "lat": -27.442964749999998,
    "lon": 152.98442905000002,
    "hours": ""
  },
  {
    "id": "salon-189",
    "name": "Body Works",
    "address": "Wangaratta",
    "suburb": "Wangaratta",
    "state": "VIC",
    "postcode": "3677",
    "phone": "",
    "lat": -36.3653624,
    "lon": 146.31853195,
    "hours": ""
  },
  {
    "id": "salon-190",
    "name": "Beauty By Josephine",
    "address": "Burwood",
    "suburb": "Burwood",
    "state": "NSW",
    "postcode": "2134",
    "phone": "",
    "lat": -33.878387849999996,
    "lon": 151.1041198,
    "hours": ""
  },
  {
    "id": "salon-191",
    "name": "Looking Great Beauty Salon",
    "address": "Scottsdale",
    "suburb": "Scottsdale",
    "state": "TAS",
    "postcode": "7260",
    "phone": "",
    "lat": -41.169471550000004,
    "lon": 147.52180629999998,
    "hours": ""
  },
  {
    "id": "salon-192",
    "name": "Stephanies Mountain Spa",
    "address": "Clear Mountain",
    "suburb": "Clear Mountain",
    "state": "QLD",
    "postcode": "4500",
    "phone": "",
    "lat": -27.318666150000002,
    "lon": 152.89093839999998,
    "hours": ""
  },
  {
    "id": "salon-193",
    "name": "Stephanies Ocean Spa",
    "address": "Noosa Heads",
    "suburb": "Noosa Heads",
    "state": "QLD",
    "postcode": "4567",
    "phone": "",
    "lat": -26.41055275,
    "lon": 153.09615495,
    "hours": ""
  },
  {
    "id": "salon-194",
    "name": "Mek Beauty Clinic",
    "address": "Highton",
    "suburb": "Highton",
    "state": "VIC",
    "postcode": "3216",
    "phone": "",
    "lat": -38.1735323,
    "lon": 144.3098934,
    "hours": ""
  },
  {
    "id": "salon-195",
    "name": "Beauty on Calton",
    "address": "Gawler East",
    "suburb": "Gawler East",
    "state": "SA",
    "postcode": "5118",
    "phone": "",
    "lat": -34.60182835,
    "lon": 138.76705364999998,
    "hours": ""
  },
  {
    "id": "salon-196",
    "name": "Blush Me",
    "address": "Wodonga",
    "suburb": "Wodonga",
    "state": "VIC",
    "postcode": "3690",
    "phone": "",
    "lat": -36.1168777,
    "lon": 146.84841244999998,
    "hours": ""
  },
  {
    "id": "salon-197",
    "name": "Dee's Wax Works",
    "address": "Toowoomba City",
    "suburb": "Toowoomba City",
    "state": "QLD",
    "postcode": "4350",
    "phone": "",
    "lat": -27.5597656,
    "lon": 151.9506378,
    "hours": ""
  },
  {
    "id": "salon-198",
    "name": "Solutions Skin Fitness",
    "address": "Midland",
    "suburb": "Midland",
    "state": "WA",
    "postcode": "6056",
    "phone": "",
    "lat": -31.891732349999998,
    "lon": 116.00973685,
    "hours": ""
  },
  {
    "id": "salon-199",
    "name": "Pure The Essence of Nature",
    "address": "Malvern",
    "suburb": "Malvern",
    "state": "SA",
    "postcode": "5061",
    "phone": "",
    "lat": -34.95912975,
    "lon": 138.6126562,
    "hours": ""
  },
  {
    "id": "salon-200",
    "name": "Beyond Beauty Salon",
    "address": "Gosford",
    "suburb": "Gosford",
    "state": "NSW",
    "postcode": "2250",
    "phone": "",
    "lat": -33.4239087,
    "lon": 151.3406161,
    "hours": ""
  },
  {
    "id": "salon-201",
    "name": "Scruples Beauty Renaissance",
    "address": "Nowra",
    "suburb": "Nowra",
    "state": "NSW",
    "postcode": "2541",
    "phone": "",
    "lat": -34.880893,
    "lon": 150.60606214999999,
    "hours": ""
  },
  {
    "id": "salon-202",
    "name": "Spencer Street Pharmacy",
    "address": "Docklands",
    "suburb": "Docklands",
    "state": "VIC",
    "postcode": "3008",
    "phone": "",
    "lat": -37.81827885,
    "lon": 144.9375872,
    "hours": ""
  },
  {
    "id": "salon-203",
    "name": "Australian Laser & Skin Clinics",
    "address": "Ringwood North",
    "suburb": "Ringwood North",
    "state": "VIC",
    "postcode": "3134",
    "phone": "",
    "lat": -37.79210955,
    "lon": 145.23151040000002,
    "hours": ""
  },
  {
    "id": "salon-204",
    "name": "Schick Natural Body Therapies",
    "address": "Kingston",
    "suburb": "Kingston",
    "state": "ACT",
    "postcode": "2604",
    "phone": "",
    "lat": -35.3145193,
    "lon": 149.14553204999999,
    "hours": ""
  },
  {
    "id": "salon-205",
    "name": "Vini Vernon",
    "address": "Toowoomba City",
    "suburb": "Toowoomba City",
    "state": "QLD",
    "postcode": "4350",
    "phone": "",
    "lat": -27.5597656,
    "lon": 151.9506378,
    "hours": ""
  },
  {
    "id": "salon-206",
    "name": "Sheree Nail Salon",
    "address": "Banks",
    "suburb": "Banks",
    "state": "ACT",
    "postcode": "2906",
    "phone": "",
    "lat": -35.47186125,
    "lon": 149.10090534999998,
    "hours": ""
  },
  {
    "id": "salon-207",
    "name": "Add Degrees Hair & Beauty",
    "address": "Melbourne",
    "suburb": "Melbourne",
    "state": "VIC",
    "postcode": "3000",
    "phone": "",
    "lat": -37.8112559,
    "lon": 144.96392625,
    "hours": ""
  },
  {
    "id": "salon-208",
    "name": "Image Hair & Beauty",
    "address": "Andergrove",
    "suburb": "Andergrove",
    "state": "QLD",
    "postcode": "4740",
    "phone": "",
    "lat": -21.0926424,
    "lon": 149.18381775000003,
    "hours": ""
  },
  {
    "id": "salon-209",
    "name": "Serenity Beauty Care",
    "address": "Bateau Bay",
    "suburb": "Bateau Bay",
    "state": "NSW",
    "postcode": "2261",
    "phone": "",
    "lat": -33.38486485,
    "lon": 151.47121235,
    "hours": ""
  },
  {
    "id": "salon-210",
    "name": "Paula's Place",
    "address": "Palm Beach",
    "suburb": "Palm Beach",
    "state": "QLD",
    "postcode": "4221",
    "phone": "",
    "lat": -28.12859135,
    "lon": 153.4576549,
    "hours": ""
  },
  {
    "id": "salon-211",
    "name": "C'est Si Bon Skin & Body Care Centre",
    "address": "Traralgon",
    "suburb": "Traralgon",
    "state": "VIC",
    "postcode": "3844",
    "phone": "",
    "lat": -38.20193809999999,
    "lon": 146.5144655,
    "hours": ""
  },
  {
    "id": "salon-212",
    "name": "Brazilian Butterfly",
    "address": "St Kilda",
    "suburb": "St Kilda",
    "state": "VIC",
    "postcode": "3182",
    "phone": "",
    "lat": -37.86424004999999,
    "lon": 144.98199045,
    "hours": ""
  },
  {
    "id": "salon-213",
    "name": "Brazilian Butterfly",
    "address": "Camberwell",
    "suburb": "Camberwell",
    "state": "VIC",
    "postcode": "3124",
    "phone": "",
    "lat": -37.83563779999999,
    "lon": 145.0758472,
    "hours": ""
  },
  {
    "id": "salon-214",
    "name": "Studio 60 Skin Body & Beauty Centre",
    "address": "Parramatta Park",
    "suburb": "Parramatta Park",
    "state": "QLD",
    "postcode": "4870",
    "phone": "",
    "lat": -16.9230045,
    "lon": 145.76380220000001,
    "hours": ""
  },
  {
    "id": "salon-215",
    "name": "The Clinic - Skin Laser Beauty",
    "address": "North Ward",
    "suburb": "North Ward",
    "state": "QLD",
    "postcode": "4810",
    "phone": "",
    "lat": -19.248692100000003,
    "lon": 146.8086713,
    "hours": ""
  },
  {
    "id": "salon-216",
    "name": "Debra's Beauty",
    "address": "Rosslyn Park",
    "suburb": "Rosslyn Park",
    "state": "SA",
    "postcode": "5072",
    "phone": "",
    "lat": -34.92220775,
    "lon": 138.6766431,
    "hours": ""
  },
  {
    "id": "salon-217",
    "name": "Schmink Beauty House",
    "address": "Altona",
    "suburb": "Altona",
    "state": "VIC",
    "postcode": "3018",
    "phone": "",
    "lat": -37.8632565,
    "lon": 144.82269705,
    "hours": ""
  },
  {
    "id": "salon-218",
    "name": "Stephanie's Urban Spa",
    "address": "Bulimba",
    "suburb": "Bulimba",
    "state": "QLD",
    "postcode": "4171",
    "phone": "",
    "lat": -27.457727900000002,
    "lon": 153.06340705,
    "hours": ""
  },
  {
    "id": "salon-219",
    "name": "Infiniki Hair & Beauty",
    "address": "Wodonga",
    "suburb": "Wodonga",
    "state": "VIC",
    "postcode": "3690",
    "phone": "",
    "lat": -36.1168777,
    "lon": 146.84841244999998,
    "hours": ""
  },
  {
    "id": "salon-220",
    "name": "Strut Hair and Makeup",
    "address": "Altona",
    "suburb": "Altona",
    "state": "VIC",
    "postcode": "3018",
    "phone": "",
    "lat": -37.8632565,
    "lon": 144.82269705,
    "hours": ""
  },
  {
    "id": "salon-221",
    "name": "Samay Beauty Centre",
    "address": "Bundoora",
    "suburb": "Bundoora",
    "state": "VIC",
    "postcode": "3083",
    "phone": "",
    "lat": -37.702825499999996,
    "lon": 145.06449234999997,
    "hours": ""
  },
  {
    "id": "salon-222",
    "name": "Timeless Health & Beauty",
    "address": "Gungahlin",
    "suburb": "Gungahlin",
    "state": "ACT",
    "postcode": "2912",
    "phone": "",
    "lat": -35.187747300000005,
    "lon": 149.1376349,
    "hours": ""
  },
  {
    "id": "salon-223",
    "name": "Forever Fabulous",
    "address": "Bradbury",
    "suburb": "Bradbury",
    "state": "NSW",
    "postcode": "2560",
    "phone": "",
    "lat": -34.084050500000004,
    "lon": 150.81748595,
    "hours": ""
  },
  {
    "id": "salon-224",
    "name": "Techno Tan",
    "address": "Kirwan",
    "suburb": "Kirwan",
    "state": "QLD",
    "postcode": "4817",
    "phone": "",
    "lat": -19.303700550000002,
    "lon": 146.7249338,
    "hours": ""
  },
  {
    "id": "salon-225",
    "name": "Shimmer Body Studio",
    "address": "Helensvale",
    "suburb": "Helensvale",
    "state": "QLD",
    "postcode": "4212",
    "phone": "",
    "lat": -27.89391095,
    "lon": 153.34814645000003,
    "hours": ""
  },
  {
    "id": "salon-226",
    "name": "XY Skin & Body Newcastle",
    "address": "Newcastle West",
    "suburb": "Newcastle West",
    "state": "NSW",
    "postcode": "2302",
    "phone": "",
    "lat": -32.92812905,
    "lon": 151.76038309999998,
    "hours": ""
  },
  {
    "id": "salon-227",
    "name": "Cinderella's Nails & Spa South Perth",
    "address": "South Perth",
    "suburb": "South Perth",
    "state": "WA",
    "postcode": "6151",
    "phone": "",
    "lat": -31.976401900000003,
    "lon": 115.86404364999999,
    "hours": ""
  },
  {
    "id": "salon-228",
    "name": "Pretty Woman Salon",
    "address": "Mooloolaba",
    "suburb": "Mooloolaba",
    "state": "QLD",
    "postcode": "4557",
    "phone": "",
    "lat": -26.6851027,
    "lon": 153.1162441,
    "hours": ""
  },
  {
    "id": "salon-229",
    "name": "Beauty By The Bay",
    "address": "Sandringham",
    "suburb": "Sandringham",
    "state": "VIC",
    "postcode": "3191",
    "phone": "",
    "lat": -37.95376254999999,
    "lon": 145.01332509999997,
    "hours": ""
  },
  {
    "id": "salon-230",
    "name": "Beyond the SPA",
    "address": "Capalaba",
    "suburb": "Capalaba",
    "state": "QLD",
    "postcode": "4157",
    "phone": "",
    "lat": -27.5409351,
    "lon": 153.2034148,
    "hours": ""
  },
  {
    "id": "salon-231",
    "name": "Purity By Cassie",
    "address": "Bungendore",
    "suburb": "Bungendore",
    "state": "NSW",
    "postcode": "2621",
    "phone": "",
    "lat": -35.2960237,
    "lon": 149.47163045,
    "hours": ""
  },
  {
    "id": "salon-232",
    "name": "Bathurst Laser Skin Care & Electrolysis Centre",
    "address": "Bathurst",
    "suburb": "Bathurst",
    "state": "NSW",
    "postcode": "2795",
    "phone": "",
    "lat": -33.41897445,
    "lon": 149.57821449999997,
    "hours": ""
  },
  {
    "id": "salon-233",
    "name": "Lillians Beauty Salon",
    "address": "North Richmond",
    "suburb": "North Richmond",
    "state": "NSW",
    "postcode": "2754",
    "phone": "",
    "lat": -33.56711070000001,
    "lon": 150.7219936,
    "hours": ""
  },
  {
    "id": "salon-234",
    "name": "Ella Bache Salon and Spa Kalgoorlie",
    "address": "Kalgoorlie",
    "suburb": "Kalgoorlie",
    "state": "WA",
    "postcode": "6430",
    "phone": "",
    "lat": -30.753089850000002,
    "lon": 121.46457035,
    "hours": ""
  },
  {
    "id": "salon-235",
    "name": "Euphoria Hair Beauty Spa",
    "address": "Tamworth",
    "suburb": "Tamworth",
    "state": "NSW",
    "postcode": "2340",
    "phone": "",
    "lat": -31.092989749999997,
    "lon": 150.9323101,
    "hours": ""
  },
  {
    "id": "salon-236",
    "name": "Dolce Vita Beaute",
    "address": "Newtown",
    "suburb": "Newtown",
    "state": "NSW",
    "postcode": "2042",
    "phone": "",
    "lat": -33.8999366,
    "lon": 151.1766812,
    "hours": ""
  },
  {
    "id": "salon-237",
    "name": "All You Beauty, Skin & Holistic Clinic",
    "address": "Mornington",
    "suburb": "Mornington",
    "state": "VIC",
    "postcode": "3931",
    "phone": "",
    "lat": -38.22804035,
    "lon": 145.06240914999998,
    "hours": ""
  },
  {
    "id": "salon-238",
    "name": "Aaqua Marine Medi Spa",
    "address": "Tuncurry",
    "suburb": "Tuncurry",
    "state": "NSW",
    "postcode": "2428",
    "phone": "",
    "lat": -32.159771549999995,
    "lon": 152.48735875,
    "hours": ""
  },
  {
    "id": "salon-239",
    "name": "Skin Purrfect",
    "address": "Kilmore",
    "suburb": "Kilmore",
    "state": "VIC",
    "postcode": "3764",
    "phone": "",
    "lat": -37.2985006,
    "lon": 144.95900339999997,
    "hours": ""
  },
  {
    "id": "salon-240",
    "name": "Arcadia Health & Beauty Studio",
    "address": "Arcadia Vale",
    "suburb": "Arcadia Vale",
    "state": "NSW",
    "postcode": "2283",
    "phone": "",
    "lat": -33.05833375,
    "lon": 151.57684475000002,
    "hours": ""
  },
  {
    "id": "salon-241",
    "name": "Fountain of Youth & Float Centre",
    "address": "Alderley",
    "suburb": "Alderley",
    "state": "QLD",
    "postcode": "4051",
    "phone": "",
    "lat": -27.42515655,
    "lon": 153.0007503,
    "hours": ""
  },
  {
    "id": "salon-242",
    "name": "Skin Solutions Beauty & Skin Clinic",
    "address": "Turvey Park",
    "suburb": "Turvey Park",
    "state": "NSW",
    "postcode": "2650",
    "phone": "",
    "lat": -35.1274037,
    "lon": 147.35998055000002,
    "hours": ""
  },
  {
    "id": "salon-243",
    "name": "Cosmetic Studio",
    "address": "Subiaco",
    "suburb": "Subiaco",
    "state": "WA",
    "postcode": "6008",
    "phone": "",
    "lat": -31.948634550000005,
    "lon": 115.8248603,
    "hours": ""
  },
  {
    "id": "salon-244",
    "name": "Within Health & Beauty",
    "address": "Cashmere",
    "suburb": "Cashmere",
    "state": "QLD",
    "postcode": "4500",
    "phone": "",
    "lat": -27.293286849999998,
    "lon": 152.90319044999998,
    "hours": ""
  },
  {
    "id": "salon-245",
    "name": "Allure Health and Beauty",
    "address": "Springwood",
    "suburb": "Springwood",
    "state": "QLD",
    "postcode": "4127",
    "phone": "",
    "lat": -27.6212742,
    "lon": 153.1372499,
    "hours": ""
  },
  {
    "id": "salon-246",
    "name": "Beauty At The Heritage",
    "address": "Windsor",
    "suburb": "Windsor",
    "state": "NSW",
    "postcode": "2756",
    "phone": "",
    "lat": -33.61161744999999,
    "lon": 150.82111755,
    "hours": ""
  },
  {
    "id": "salon-247",
    "name": "Nail Innovations",
    "address": "Byron Bay",
    "suburb": "Byron Bay",
    "state": "NSW",
    "postcode": "2481",
    "phone": "",
    "lat": -28.64686825,
    "lon": 153.60289939999998,
    "hours": ""
  },
  {
    "id": "salon-248",
    "name": "Armidale Skin & Tonic",
    "address": "Armidale",
    "suburb": "Armidale",
    "state": "NSW",
    "postcode": "2350",
    "phone": "",
    "lat": -30.5005883,
    "lon": 151.6673933,
    "hours": ""
  },
  {
    "id": "salon-249",
    "name": "M3M Beauty salon and spa",
    "address": "Keilor",
    "suburb": "Keilor",
    "state": "VIC",
    "postcode": "3036",
    "phone": "",
    "lat": -37.70905405,
    "lon": 144.8248841,
    "hours": ""
  },
  {
    "id": "salon-250",
    "name": "A World Of Beauty",
    "address": "Morwell",
    "suburb": "Morwell",
    "state": "VIC",
    "postcode": "3840",
    "phone": "",
    "lat": -38.2317333,
    "lon": 146.42002795000002,
    "hours": ""
  },
  {
    "id": "salon-251",
    "name": "The Beauty Boutique On Bridge",
    "address": "East Toowoomba",
    "suburb": "East Toowoomba",
    "state": "QLD",
    "postcode": "4350",
    "phone": "",
    "lat": -27.56226105,
    "lon": 151.9689468,
    "hours": ""
  },
  {
    "id": "salon-252",
    "name": "Mary's House Of Beauty",
    "address": "North Rocks",
    "suburb": "North Rocks",
    "state": "NSW",
    "postcode": "2151",
    "phone": "",
    "lat": -33.7757236,
    "lon": 151.01473585,
    "hours": ""
  },
  {
    "id": "salon-253",
    "name": "Ella Bache Eltham",
    "address": "Eltham",
    "suburb": "Eltham",
    "state": "VIC",
    "postcode": "3095",
    "phone": "",
    "lat": -37.71464395,
    "lon": 145.16329665,
    "hours": ""
  },
  {
    "id": "salon-254",
    "name": "A.N.A. Naturally Beautiful",
    "address": "Cheltenham",
    "suburb": "Cheltenham",
    "state": "VIC",
    "postcode": "3192",
    "phone": "",
    "lat": -37.9619554,
    "lon": 145.06012035,
    "hours": ""
  },
  {
    "id": "salon-255",
    "name": "Priceline Pharmacy Mitcham",
    "address": "Torrens Park",
    "suburb": "Torrens Park",
    "state": "SA",
    "postcode": "5062",
    "phone": "",
    "lat": -34.98583285,
    "lon": 138.61315634999997,
    "hours": ""
  },
  {
    "id": "salon-256",
    "name": "Aesthetic Anti-Ageing Treatments",
    "address": "Albury",
    "suburb": "Albury",
    "state": "NSW",
    "postcode": "2640",
    "phone": "",
    "lat": -36.07344200000001,
    "lon": 146.9159793,
    "hours": ""
  },
  {
    "id": "salon-257",
    "name": "Fuss Beauty College",
    "address": "Edgecliff",
    "suburb": "Edgecliff",
    "state": "NSW",
    "postcode": "2027",
    "phone": "",
    "lat": -33.87969445,
    "lon": 151.2359771,
    "hours": ""
  },
  {
    "id": "salon-258",
    "name": "All About You Beauty Care",
    "address": "Dubbo",
    "suburb": "Dubbo",
    "state": "NSW",
    "postcode": "2830",
    "phone": "",
    "lat": -32.2814115,
    "lon": 148.60432275,
    "hours": ""
  },
  {
    "id": "salon-259",
    "name": "Boulder Beauty Care",
    "address": "Boulder",
    "suburb": "Boulder",
    "state": "WA",
    "postcode": "6432",
    "phone": "",
    "lat": -30.774667749999995,
    "lon": 121.48122415,
    "hours": ""
  },
  {
    "id": "salon-260",
    "name": "Face of Man",
    "address": "Sydney",
    "suburb": "Sydney",
    "state": "NSW",
    "postcode": "2000",
    "phone": "",
    "lat": -33.869662399999996,
    "lon": 151.20997995000002,
    "hours": ""
  },
  {
    "id": "salon-261",
    "name": "Beauty Grace",
    "address": "Sydney",
    "suburb": "Sydney",
    "state": "NSW",
    "postcode": "2000",
    "phone": "",
    "lat": -33.869662399999996,
    "lon": 151.20997995000002,
    "hours": ""
  },
  {
    "id": "salon-262",
    "name": "The Touch Of Serenity",
    "address": "South Yunderup",
    "suburb": "South Yunderup",
    "state": "WA",
    "postcode": "6208",
    "phone": "",
    "lat": -32.60938925000001,
    "lon": 115.73691290000001,
    "hours": ""
  },
  {
    "id": "salon-263",
    "name": "You Got Nailed",
    "address": "Victor Harbor",
    "suburb": "Victor Harbor",
    "state": "SA",
    "postcode": "5211",
    "phone": "",
    "lat": -35.54711145,
    "lon": 138.61141155,
    "hours": ""
  },
  {
    "id": "salon-264",
    "name": "My Beauty Spot",
    "address": "Forrest Beach",
    "suburb": "Forrest Beach",
    "state": "QLD",
    "postcode": "4850",
    "phone": "",
    "lat": -18.71617315,
    "lon": 146.27171355000002,
    "hours": ""
  },
  {
    "id": "salon-265",
    "name": "Casino Sharon's Hair & Beauty",
    "address": "Casino",
    "suburb": "Casino",
    "state": "NSW",
    "postcode": "2470",
    "phone": "",
    "lat": -28.85148305,
    "lon": 153.03273495,
    "hours": ""
  },
  {
    "id": "salon-266",
    "name": "Bare Therapies",
    "address": "Alderley",
    "suburb": "Alderley",
    "state": "QLD",
    "postcode": "4051",
    "phone": "",
    "lat": -27.42515655,
    "lon": 153.0007503,
    "hours": ""
  },
  {
    "id": "salon-267",
    "name": "Mytyme Beauty Salon",
    "address": "Moree",
    "suburb": "Moree",
    "state": "NSW",
    "postcode": "2400",
    "phone": "",
    "lat": -29.3052756,
    "lon": 149.77726564999998,
    "hours": ""
  },
  {
    "id": "salon-268",
    "name": "Midges Beauty Salon",
    "address": "114 Stafford St, Penrith",
    "suburb": "Penrith",
    "state": "NSW",
    "postcode": "2750",
    "phone": "",
    "lat": -33.761933299999995,
    "lon": 150.7073675,
    "hours": ""
  },
  {
    "id": "salon-269",
    "name": "Oxford Beauty Clinic",
    "address": "320 Vincent Street, Leederville",
    "suburb": "Leederville",
    "state": "WA",
    "postcode": "6007",
    "phone": "",
    "lat": -31.936297,
    "lon": 115.8401705,
    "hours": ""
  },
  {
    "id": "salon-270",
    "name": "Jane's Mobile Beauty Makeovers",
    "address": "Lynbrook",
    "suburb": "Lynbrook",
    "state": "VIC",
    "postcode": "3975",
    "phone": "",
    "lat": -38.056662,
    "lon": 145.25567279999999,
    "hours": ""
  },
  {
    "id": "salon-271",
    "name": "Body Skin & Spa",
    "address": "Pambula",
    "suburb": "Pambula",
    "state": "NSW",
    "postcode": "2549",
    "phone": "",
    "lat": -36.931757399999995,
    "lon": 149.8766507,
    "hours": ""
  },
  {
    "id": "salon-272",
    "name": "Professionail",
    "address": "Chipping Norton",
    "suburb": "Chipping Norton",
    "state": "NSW",
    "postcode": "2170",
    "phone": "",
    "lat": -33.91492459999999,
    "lon": 150.9567291,
    "hours": ""
  },
  {
    "id": "salon-273",
    "name": "Forever Skinfit",
    "address": "Wendouree",
    "suburb": "Wendouree",
    "state": "VIC",
    "postcode": "3355",
    "phone": "",
    "lat": -37.53097845,
    "lon": 143.8259679,
    "hours": ""
  },
  {
    "id": "salon-274",
    "name": "Saron Beauty",
    "address": "Wembley",
    "suburb": "Wembley",
    "state": "WA",
    "postcode": "6014",
    "phone": "",
    "lat": -31.932443450000005,
    "lon": 115.81877534999998,
    "hours": ""
  },
  {
    "id": "salon-275",
    "name": "Ella Bache Ellenbrook",
    "address": "Bullsbrook",
    "suburb": "Bullsbrook",
    "state": "WA",
    "postcode": "6084",
    "phone": "",
    "lat": -31.67274215,
    "lon": 116.01603744999998,
    "hours": ""
  },
  {
    "id": "salon-276",
    "name": "Belle Image Beauty Clinic",
    "address": "Wellington Point",
    "suburb": "Wellington Point",
    "state": "QLD",
    "postcode": "4160",
    "phone": "",
    "lat": -27.494616649999998,
    "lon": 153.24445930000002,
    "hours": ""
  },
  {
    "id": "salon-277",
    "name": "Silken Dragonfly The",
    "address": "Rutherglen",
    "suburb": "Rutherglen",
    "state": "VIC",
    "postcode": "3685",
    "phone": "",
    "lat": -36.0639234,
    "lon": 146.48396645,
    "hours": ""
  },
  {
    "id": "salon-278",
    "name": "Proskin Clinic",
    "address": "Adelaide",
    "suburb": "Adelaide",
    "state": "SA",
    "postcode": "5000",
    "phone": "",
    "lat": -34.9257512,
    "lon": 138.60075289999997,
    "hours": ""
  },
  {
    "id": "salon-279",
    "name": "Brazilica",
    "address": "Fitzroy",
    "suburb": "Fitzroy",
    "state": "VIC",
    "postcode": "3065",
    "phone": "",
    "lat": -37.80091725,
    "lon": 144.97916555,
    "hours": ""
  },
  {
    "id": "salon-280",
    "name": "Body Sense Solutions",
    "address": "Gordon",
    "suburb": "Gordon",
    "state": "NSW",
    "postcode": "2072",
    "phone": "",
    "lat": -33.75742985000001,
    "lon": 151.1557534,
    "hours": ""
  },
  {
    "id": "salon-281",
    "name": "Clay Organic Beauty",
    "address": "Mullumbimby",
    "suburb": "Mullumbimby",
    "state": "NSW",
    "postcode": "2482",
    "phone": "",
    "lat": -28.5493654,
    "lon": 153.49906419999996,
    "hours": ""
  },
  {
    "id": "salon-282",
    "name": "Sensaura",
    "address": "Noosa Heads",
    "suburb": "Noosa Heads",
    "state": "QLD",
    "postcode": "4567",
    "phone": "",
    "lat": -26.41055275,
    "lon": 153.09615495,
    "hours": ""
  },
  {
    "id": "salon-283",
    "name": "Skin Resus",
    "address": "Floreat",
    "suburb": "Floreat",
    "state": "WA",
    "postcode": "6014",
    "phone": "",
    "lat": -31.9362805,
    "lon": 115.8058237,
    "hours": ""
  },
  {
    "id": "salon-284",
    "name": "Five Senses Face & Body Rejuvenation",
    "address": "Cromer",
    "suburb": "Cromer",
    "state": "NSW",
    "postcode": "2099",
    "phone": "",
    "lat": -33.73043695,
    "lon": 151.26831775,
    "hours": ""
  },
  {
    "id": "salon-285",
    "name": "Nature's Energy",
    "address": "Glebe",
    "suburb": "Glebe",
    "state": "NSW",
    "postcode": "2037",
    "phone": "",
    "lat": -33.8778562,
    "lon": 151.18625784999998,
    "hours": ""
  },
  {
    "id": "salon-286",
    "name": "Timeless Anti Aging Clinic",
    "address": "Malvern",
    "suburb": "Malvern",
    "state": "VIC",
    "postcode": "3144",
    "phone": "",
    "lat": -37.85512885,
    "lon": 145.03533935,
    "hours": ""
  },
  {
    "id": "salon-287",
    "name": "Skin Deep Medi-Spas",
    "address": "Como",
    "suburb": "Como",
    "state": "WA",
    "postcode": "6152",
    "phone": "",
    "lat": -32.002946349999995,
    "lon": 115.8704495,
    "hours": ""
  },
  {
    "id": "salon-288",
    "name": "Rachael's Nails & Beauty",
    "address": "Dunlop",
    "suburb": "Dunlop",
    "state": "ACT",
    "postcode": "2615",
    "phone": "",
    "lat": -35.194882650000004,
    "lon": 149.0201659,
    "hours": ""
  },
  {
    "id": "salon-289",
    "name": "Dermedica",
    "address": "Karrinyup",
    "suburb": "Karrinyup",
    "state": "WA",
    "postcode": "6018",
    "phone": "",
    "lat": -31.8714155,
    "lon": 115.77535930000002,
    "hours": ""
  },
  {
    "id": "salon-290",
    "name": "Beauty Ink",
    "address": "Padbury",
    "suburb": "Padbury",
    "state": "WA",
    "postcode": "6025",
    "phone": "",
    "lat": -31.806606549999998,
    "lon": 115.76847755000003,
    "hours": ""
  },
  {
    "id": "salon-291",
    "name": "Kaye Poyner's Beauty Therapy & Day Spa",
    "address": "Ararat",
    "suburb": "Ararat",
    "state": "VIC",
    "postcode": "3377",
    "phone": "",
    "lat": -37.2658785,
    "lon": 142.97973225,
    "hours": ""
  },
  {
    "id": "salon-292",
    "name": "Just Breathe",
    "address": "Blackburn North",
    "suburb": "Blackburn North",
    "state": "VIC",
    "postcode": "3130",
    "phone": "",
    "lat": -37.8046621,
    "lon": 145.1550682,
    "hours": ""
  },
  {
    "id": "salon-293",
    "name": "Angelic Touch Body & Beauty",
    "address": "Parafield Gardens",
    "suburb": "Parafield Gardens",
    "state": "SA",
    "postcode": "5107",
    "phone": "",
    "lat": -34.783685549999994,
    "lon": 138.6129558,
    "hours": ""
  },
  {
    "id": "salon-294",
    "name": "Marie's Beauty Secrets",
    "address": "Connells Point",
    "suburb": "Connells Point",
    "state": "NSW",
    "postcode": "2221",
    "phone": "",
    "lat": -33.98656055,
    "lon": 151.09368930000002,
    "hours": ""
  },
  {
    "id": "salon-295",
    "name": "Axis Hair & Beauty",
    "address": "Frewville",
    "suburb": "Frewville",
    "state": "SA",
    "postcode": "5063",
    "phone": "",
    "lat": -34.9488798,
    "lon": 138.62980380000002,
    "hours": ""
  },
  {
    "id": "salon-296",
    "name": "Beauty at Victoria's",
    "address": "Dural",
    "suburb": "Dural",
    "state": "NSW",
    "postcode": "2158",
    "phone": "",
    "lat": -33.684982049999995,
    "lon": 151.04147165,
    "hours": ""
  },
  {
    "id": "salon-297",
    "name": "Gorgeous Skin and Beauty - Kay Morris",
    "address": "Cherrybrook",
    "suburb": "Cherrybrook",
    "state": "NSW",
    "postcode": "2126",
    "phone": "",
    "lat": -33.72178425,
    "lon": 151.04593369999998,
    "hours": ""
  },
  {
    "id": "salon-298",
    "name": "Bay Pelle Beauty Clinic & Day Spa",
    "address": "Rose Bay",
    "suburb": "Rose Bay",
    "state": "NSW",
    "postcode": "2029",
    "phone": "",
    "lat": -33.8741648,
    "lon": 151.2656845,
    "hours": ""
  },
  {
    "id": "salon-299",
    "name": "L'Eltoile Elite",
    "address": "Sydney",
    "suburb": "Sydney",
    "state": "NSW",
    "postcode": "2000",
    "phone": "",
    "lat": -33.869662399999996,
    "lon": 151.20997995000002,
    "hours": ""
  },
  {
    "id": "salon-300",
    "name": "Karma Skin Care Centre",
    "address": "Guildford",
    "suburb": "Guildford",
    "state": "WA",
    "postcode": "6055",
    "phone": "",
    "lat": -31.8970504,
    "lon": 115.9736473,
    "hours": ""
  },
  {
    "id": "salon-301",
    "name": "R & R Skincare Centre",
    "address": "Ashburton",
    "suburb": "Ashburton",
    "state": "VIC",
    "postcode": "3147",
    "phone": "",
    "lat": -37.86647335,
    "lon": 145.08728125,
    "hours": ""
  },
  {
    "id": "salon-302",
    "name": "Raquel's Skin Care Centre",
    "address": "Reservoir",
    "suburb": "Reservoir",
    "state": "VIC",
    "postcode": "3073",
    "phone": "",
    "lat": -37.71238605,
    "lon": 145.00557295,
    "hours": ""
  },
  {
    "id": "salon-303",
    "name": "Brazilian Beauty",
    "address": "North Adelaide",
    "suburb": "North Adelaide",
    "state": "SA",
    "postcode": "5006",
    "phone": "",
    "lat": -34.90905345,
    "lon": 138.59474945,
    "hours": ""
  },
  {
    "id": "salon-304",
    "name": "Envisage Professional Skincare Clinic",
    "address": "Ringwood North",
    "suburb": "Ringwood North",
    "state": "VIC",
    "postcode": "3134",
    "phone": "",
    "lat": -37.79210955,
    "lon": 145.23151040000002,
    "hours": ""
  },
  {
    "id": "salon-305",
    "name": "Glamour Spot Beauty Salon & Gift Shop",
    "address": "Winston Hills",
    "suburb": "Winston Hills",
    "state": "NSW",
    "postcode": "2153",
    "phone": "",
    "lat": -33.77726225000001,
    "lon": 150.98007479999998,
    "hours": ""
  },
  {
    "id": "salon-306",
    "name": "L'image Skin Care & Waxing",
    "address": "Gordon",
    "suburb": "Gordon",
    "state": "NSW",
    "postcode": "2072",
    "phone": "",
    "lat": -33.75742985000001,
    "lon": 151.1557534,
    "hours": ""
  },
  {
    "id": "salon-307",
    "name": "Bee Brazilian",
    "address": "Ringwood East",
    "suburb": "Ringwood East",
    "state": "VIC",
    "postcode": "3135",
    "phone": "",
    "lat": -37.81831885,
    "lon": 145.24716525,
    "hours": ""
  },
  {
    "id": "salon-308",
    "name": "Myimage Body Sculpting and Beauty",
    "address": "Larrakeyah",
    "suburb": "Larrakeyah",
    "state": "NT",
    "postcode": "0820",
    "phone": "",
    "lat": -12.4553123,
    "lon": 130.82489145,
    "hours": ""
  },
  {
    "id": "salon-309",
    "name": "Mankind",
    "address": "Surry Hills",
    "suburb": "Surry Hills",
    "state": "NSW",
    "postcode": "2010",
    "phone": "",
    "lat": -33.882918000000004,
    "lon": 151.21562554999997,
    "hours": ""
  },
  {
    "id": "salon-310",
    "name": "Lotus Body Studio",
    "address": "Bli Bli",
    "suburb": "Bli Bli",
    "state": "QLD",
    "postcode": "4560",
    "phone": "",
    "lat": -26.61052045,
    "lon": 153.0232288,
    "hours": ""
  },
  {
    "id": "salon-311",
    "name": "Saba Wax & Beauty",
    "address": "Williamstown",
    "suburb": "Williamstown",
    "state": "VIC",
    "postcode": "3016",
    "phone": "",
    "lat": -37.8603383,
    "lon": 144.88364925,
    "hours": ""
  },
  {
    "id": "salon-312",
    "name": "Bliss Skin & Body",
    "address": "Albury",
    "suburb": "Albury",
    "state": "NSW",
    "postcode": "2640",
    "phone": "",
    "lat": -36.07344200000001,
    "lon": 146.9159793,
    "hours": ""
  },
  {
    "id": "salon-313",
    "name": "Beauty Effects",
    "address": "Toowoomba City",
    "suburb": "Toowoomba City",
    "state": "QLD",
    "postcode": "4350",
    "phone": "",
    "lat": -27.5597656,
    "lon": 151.9506378,
    "hours": ""
  },
  {
    "id": "salon-314",
    "name": "Tropical North Day Spa",
    "address": "Hyde Park",
    "suburb": "Hyde Park",
    "state": "QLD",
    "postcode": "4812",
    "phone": "",
    "lat": -19.278104850000002,
    "lon": 146.7979471,
    "hours": ""
  },
  {
    "id": "salon-315",
    "name": "Making Faces Beauty Clinic",
    "address": "Ballina",
    "suburb": "Ballina",
    "state": "NSW",
    "postcode": "2478",
    "phone": "",
    "lat": -28.835372149999998,
    "lon": 153.55795095,
    "hours": ""
  },
  {
    "id": "salon-316",
    "name": "Flavour! Beauty Therapist",
    "address": "Kew East",
    "suburb": "Kew East",
    "state": "VIC",
    "postcode": "3102",
    "phone": "",
    "lat": -37.79052665,
    "lon": 145.05108330000002,
    "hours": ""
  },
  {
    "id": "salon-317",
    "name": "Totally Beautiful Beauty & Skin Care Centre",
    "address": "South Hurstville",
    "suburb": "South Hurstville",
    "state": "NSW",
    "postcode": "2221",
    "phone": "",
    "lat": -33.97763989999999,
    "lon": 151.10596675,
    "hours": ""
  },
  {
    "id": "salon-318",
    "name": "Port Douglas Natural Therapies Centre & Spa",
    "address": "Port Douglas",
    "suburb": "Port Douglas",
    "state": "QLD",
    "postcode": "4877",
    "phone": "",
    "lat": -16.503959100000003,
    "lon": 145.45908304999998,
    "hours": ""
  },
  {
    "id": "salon-319",
    "name": "Atone Lifestyle Salon",
    "address": "North Melbourne",
    "suburb": "North Melbourne",
    "state": "VIC",
    "postcode": "3051",
    "phone": "",
    "lat": -37.796886099999995,
    "lon": 144.9468844,
    "hours": ""
  },
  {
    "id": "salon-320",
    "name": "Swan Hill Beauty Salon",
    "address": "Swan Hill",
    "suburb": "Swan Hill",
    "state": "VIC",
    "postcode": "3585",
    "phone": "",
    "lat": -35.36212275,
    "lon": 143.523428,
    "hours": ""
  },
  {
    "id": "salon-321",
    "name": "Reco Beauty Therapy",
    "address": "Camberwell",
    "suburb": "Camberwell",
    "state": "VIC",
    "postcode": "3124",
    "phone": "",
    "lat": -37.83563779999999,
    "lon": 145.0758472,
    "hours": ""
  },
  {
    "id": "salon-322",
    "name": "Marlene Studios Make-Up & Beauty",
    "address": "Middle Ridge",
    "suburb": "Middle Ridge",
    "state": "QLD",
    "postcode": "4350",
    "phone": "",
    "lat": -27.608146349999995,
    "lon": 151.96948734999998,
    "hours": ""
  },
  {
    "id": "salon-323",
    "name": "Ella Bache Ipswich",
    "address": "North Ipswich",
    "suburb": "North Ipswich",
    "state": "QLD",
    "postcode": "4305",
    "phone": "",
    "lat": -27.59448205,
    "lon": 152.76080704999998,
    "hours": ""
  },
  {
    "id": "salon-324",
    "name": "The Noosa Spa",
    "address": "Noosaville",
    "suburb": "Noosaville",
    "state": "QLD",
    "postcode": "4566",
    "phone": "",
    "lat": -26.4247367,
    "lon": 153.05851815,
    "hours": ""
  },
  {
    "id": "salon-325",
    "name": "Bright Beauty Boutique",
    "address": "Bright",
    "suburb": "Bright",
    "state": "VIC",
    "postcode": "3741",
    "phone": "",
    "lat": -36.7026055,
    "lon": 147.03188945000002,
    "hours": ""
  },
  {
    "id": "salon-326",
    "name": "Faceworx",
    "address": "Geelong",
    "suburb": "Geelong",
    "state": "VIC",
    "postcode": "3220",
    "phone": "",
    "lat": -38.1481403,
    "lon": 144.36288325,
    "hours": ""
  },
  {
    "id": "salon-327",
    "name": "Sibu Beauty",
    "address": "Nicholls",
    "suburb": "Nicholls",
    "state": "ACT",
    "postcode": "2913",
    "phone": "",
    "lat": -35.188479799999996,
    "lon": 149.097778,
    "hours": ""
  },
  {
    "id": "salon-328",
    "name": "Walsh's Village Pharmacy",
    "address": "Maroubra",
    "suburb": "Maroubra",
    "state": "NSW",
    "postcode": "2035",
    "phone": "",
    "lat": -33.942874399999994,
    "lon": 151.23132005,
    "hours": ""
  },
  {
    "id": "salon-329",
    "name": "Solutions Skin & Health Clinic",
    "address": "Warrnambool",
    "suburb": "Warrnambool",
    "state": "VIC",
    "postcode": "3280",
    "phone": "",
    "lat": -38.36983125,
    "lon": 142.49677004999998,
    "hours": ""
  },
  {
    "id": "salon-330",
    "name": "Adeva The Art of Beauty",
    "address": "Blacktown",
    "suburb": "Blacktown",
    "state": "NSW",
    "postcode": "2148",
    "phone": "",
    "lat": -33.776158849999995,
    "lon": 150.90310474999998,
    "hours": ""
  },
  {
    "id": "salon-331",
    "name": "Hills Mobile Beauty",
    "address": "Westmead",
    "suburb": "Westmead",
    "state": "NSW",
    "postcode": "2145",
    "phone": "",
    "lat": -33.80920685,
    "lon": 150.9869569,
    "hours": ""
  },
  {
    "id": "salon-332",
    "name": "Elements Darwin",
    "address": "Darwin City",
    "suburb": "Darwin City",
    "state": "NT",
    "postcode": "0800",
    "phone": "",
    "lat": -12.463000899999999,
    "lon": 130.8426151,
    "hours": ""
  },
  {
    "id": "salon-333",
    "name": "ProfessioNAIL",
    "address": "Rosny Park",
    "suburb": "Rosny Park",
    "state": "TAS",
    "postcode": "7018",
    "phone": "",
    "lat": -42.866413449999996,
    "lon": 147.3672477,
    "hours": ""
  },
  {
    "id": "salon-334",
    "name": "Forster Beauty Therapy",
    "address": "Forster",
    "suburb": "Forster",
    "state": "NSW",
    "postcode": "2428",
    "phone": "",
    "lat": -32.2337079,
    "lon": 152.5329801,
    "hours": ""
  },
  {
    "id": "salon-335",
    "name": "Beauty Point Salon",
    "address": "Manly",
    "suburb": "Manly",
    "state": "NSW",
    "postcode": "2095",
    "phone": "",
    "lat": -33.80338015,
    "lon": 151.29116885,
    "hours": ""
  },
  {
    "id": "salon-336",
    "name": "Its A Skin Thing",
    "address": "Camp Hill",
    "suburb": "Camp Hill",
    "state": "QLD",
    "postcode": "4152",
    "phone": "",
    "lat": -27.49733985,
    "lon": 153.07568465,
    "hours": ""
  },
  {
    "id": "salon-337",
    "name": "Smooth Waxing Studio",
    "address": "Bondi",
    "suburb": "Bondi",
    "state": "NSW",
    "postcode": "2026",
    "phone": "",
    "lat": -33.89308379999999,
    "lon": 151.2669523,
    "hours": ""
  },
  {
    "id": "salon-338",
    "name": "Urban Beauty",
    "address": "Dee Why",
    "suburb": "Dee Why",
    "state": "NSW",
    "postcode": "2099",
    "phone": "",
    "lat": -33.75100815,
    "lon": 151.29102504999997,
    "hours": ""
  },
  {
    "id": "salon-339",
    "name": "The Skin Institute",
    "address": "Brighton",
    "suburb": "Brighton",
    "state": "VIC",
    "postcode": "3186",
    "phone": "",
    "lat": -37.9078436,
    "lon": 144.99603075,
    "hours": ""
  },
  {
    "id": "salon-340",
    "name": "Fem Skin Therapy",
    "address": "Lower Plenty",
    "suburb": "Lower Plenty",
    "state": "VIC",
    "postcode": "3093",
    "phone": "",
    "lat": -37.73855245,
    "lon": 145.1179541,
    "hours": ""
  },
  {
    "id": "salon-341",
    "name": "Tranquil Beauty",
    "address": "Norwood",
    "suburb": "Norwood",
    "state": "SA",
    "postcode": "5067",
    "phone": "",
    "lat": -34.92135225,
    "lon": 138.63205944999999,
    "hours": ""
  },
  {
    "id": "salon-342",
    "name": "Lotus Wellbeing & Beauty",
    "address": "Nundah",
    "suburb": "Nundah",
    "state": "QLD",
    "postcode": "4012",
    "phone": "",
    "lat": -27.39592965,
    "lon": 153.05672715,
    "hours": ""
  },
  {
    "id": "salon-343",
    "name": "Your Passion Nails & Beauty",
    "address": "Logan Central",
    "suburb": "Logan Central",
    "state": "QLD",
    "postcode": "4114",
    "phone": "",
    "lat": -27.644773049999998,
    "lon": 153.10657795,
    "hours": ""
  },
  {
    "id": "salon-344",
    "name": "L'indulgence Hair & Beauty",
    "address": "Grange",
    "suburb": "Grange",
    "state": "SA",
    "postcode": "5022",
    "phone": "",
    "lat": -34.9052714,
    "lon": 138.49486515,
    "hours": ""
  },
  {
    "id": "salon-345",
    "name": "A Body Divine",
    "address": "Wavell Heights",
    "suburb": "Wavell Heights",
    "state": "QLD",
    "postcode": "4012",
    "phone": "",
    "lat": -27.39592965,
    "lon": 153.05672715,
    "hours": ""
  },
  {
    "id": "salon-346",
    "name": "Fleming Deraly",
    "address": "Goodwood",
    "suburb": "Goodwood",
    "state": "SA",
    "postcode": "5034",
    "phone": "",
    "lat": -34.95110235,
    "lon": 138.59205394999998,
    "hours": ""
  },
  {
    "id": "salon-347",
    "name": "Aria Skin & Beauty",
    "address": "Gympie",
    "suburb": "Gympie",
    "state": "QLD",
    "postcode": "4570",
    "phone": "",
    "lat": -26.183483550000002,
    "lon": 152.66393145,
    "hours": ""
  },
  {
    "id": "salon-348",
    "name": "Face To Face Beauty Salon",
    "address": "Armidale",
    "suburb": "Armidale",
    "state": "NSW",
    "postcode": "2350",
    "phone": "",
    "lat": -30.5005883,
    "lon": 151.6673933,
    "hours": ""
  },
  {
    "id": "salon-349",
    "name": "Cheryl's House Of Beauty and Health",
    "address": "Woy Woy",
    "suburb": "Woy Woy",
    "state": "NSW",
    "postcode": "2256",
    "phone": "",
    "lat": -33.50333825,
    "lon": 151.29748315,
    "hours": ""
  },
  {
    "id": "salon-350",
    "name": "Eternal Skin",
    "address": "Heidelberg",
    "suburb": "Heidelberg",
    "state": "VIC",
    "postcode": "3084",
    "phone": "",
    "lat": -37.7513684,
    "lon": 145.07098355,
    "hours": ""
  },
  {
    "id": "salon-351",
    "name": "Spa Botanica At Peppers",
    "address": "Urangan",
    "suburb": "Urangan",
    "state": "QLD",
    "postcode": "4655",
    "phone": "",
    "lat": -25.3031899,
    "lon": 152.89210209999996,
    "hours": ""
  },
  {
    "id": "salon-352",
    "name": "Sitting Pretty Skin & Body",
    "address": "Warnbro",
    "suburb": "Warnbro",
    "state": "WA",
    "postcode": "6169",
    "phone": "",
    "lat": -32.338310750000005,
    "lon": 115.76678405,
    "hours": ""
  },
  {
    "id": "salon-353",
    "name": "Ursk Make Up Beauty & Spa",
    "address": "Niddrie",
    "suburb": "Niddrie",
    "state": "VIC",
    "postcode": "3042",
    "phone": "",
    "lat": -37.73942195,
    "lon": 144.8826382,
    "hours": ""
  },
  {
    "id": "salon-354",
    "name": "Janis Livingstone",
    "address": "Empire Bay",
    "suburb": "Empire Bay",
    "state": "NSW",
    "postcode": "2257",
    "phone": "",
    "lat": -33.50261575,
    "lon": 151.3684755,
    "hours": ""
  },
  {
    "id": "salon-355",
    "name": "Oo La La Cosmetic & Laser Clinic",
    "address": "Surfers Paradise",
    "suburb": "Surfers Paradise",
    "state": "QLD",
    "postcode": "4217",
    "phone": "",
    "lat": -27.9802771,
    "lon": 153.3988774,
    "hours": ""
  },
  {
    "id": "salon-356",
    "name": "Aristos Health & Skin Care Centre",
    "address": "Battery Point",
    "suburb": "Battery Point",
    "state": "TAS",
    "postcode": "7004",
    "phone": "",
    "lat": -42.890111499999996,
    "lon": 147.3321999,
    "hours": ""
  },
  {
    "id": "salon-357",
    "name": "Paint N Powder",
    "address": "Melbourne",
    "suburb": "Melbourne",
    "state": "VIC",
    "postcode": "3000",
    "phone": "",
    "lat": -37.8112559,
    "lon": 144.96392625,
    "hours": ""
  },
  {
    "id": "salon-358",
    "name": "Your Essential Beauty And Massage",
    "address": "Inglewood",
    "suburb": "Inglewood",
    "state": "WA",
    "postcode": "6052",
    "phone": "",
    "lat": -31.917592150000004,
    "lon": 115.88020205000001,
    "hours": ""
  },
  {
    "id": "salon-359",
    "name": "Balance Beauty and Makeup Artistry",
    "address": "Hyde Park",
    "suburb": "Hyde Park",
    "state": "QLD",
    "postcode": "4812",
    "phone": "",
    "lat": -19.278104850000002,
    "lon": 146.7979471,
    "hours": ""
  },
  {
    "id": "salon-360",
    "name": "Ren Skin Health",
    "address": "Geelong",
    "suburb": "Geelong",
    "state": "VIC",
    "postcode": "3220",
    "phone": "",
    "lat": -38.1481403,
    "lon": 144.36288325,
    "hours": ""
  },
  {
    "id": "salon-361",
    "name": "Elita Cosmetic Medicine",
    "address": "Glenroy",
    "suburb": "Glenroy",
    "state": "VIC",
    "postcode": "3046",
    "phone": "",
    "lat": -37.70410305,
    "lon": 144.92863975,
    "hours": ""
  },
  {
    "id": "salon-362",
    "name": "Spa In The Park",
    "address": "East Victoria Park",
    "suburb": "East Victoria Park",
    "state": "WA",
    "postcode": "6101",
    "phone": "",
    "lat": -31.989742499999995,
    "lon": 115.90363520000001,
    "hours": ""
  },
  {
    "id": "salon-363",
    "name": "California Nails",
    "address": "Paddington",
    "suburb": "Paddington",
    "state": "NSW",
    "postcode": "2021",
    "phone": "",
    "lat": -33.8833445,
    "lon": 151.2279038,
    "hours": ""
  },
  {
    "id": "salon-364",
    "name": "High Glam Beauty",
    "address": "Newtown",
    "suburb": "Newtown",
    "state": "VIC",
    "postcode": "3220",
    "phone": "",
    "lat": -38.1536984,
    "lon": 144.33500644999998,
    "hours": ""
  },
  {
    "id": "salon-365",
    "name": "Belle Journee Spa & Beauty Salon",
    "address": "Edgecliff",
    "suburb": "Edgecliff",
    "state": "NSW",
    "postcode": "2027",
    "phone": "",
    "lat": -33.87969445,
    "lon": 151.2359771,
    "hours": ""
  },
  {
    "id": "salon-366",
    "name": "Wish Beauty",
    "address": "Woonona",
    "suburb": "Woonona",
    "state": "NSW",
    "postcode": "2517",
    "phone": "",
    "lat": -34.349645900000006,
    "lon": 150.90195705,
    "hours": ""
  },
  {
    "id": "salon-367",
    "name": "Jet Nail Bar",
    "address": "Brunswick",
    "suburb": "Brunswick",
    "state": "VIC",
    "postcode": "3056",
    "phone": "",
    "lat": -37.76677505,
    "lon": 144.96275985000003,
    "hours": ""
  },
  {
    "id": "salon-368",
    "name": "The Beauty Room Cosmetic Clinic",
    "address": "Richmond",
    "suburb": "Richmond",
    "state": "NSW",
    "postcode": "2753",
    "phone": "",
    "lat": -33.605778550000004,
    "lon": 150.75867335,
    "hours": ""
  },
  {
    "id": "salon-369",
    "name": "Bella Diamontes Beauty Therapy",
    "address": "Springwood",
    "suburb": "Springwood",
    "state": "QLD",
    "postcode": "4127",
    "phone": "",
    "lat": -27.6212742,
    "lon": 153.1372499,
    "hours": ""
  },
  {
    "id": "salon-370",
    "name": "Chrysalis Medispa",
    "address": "Aitkenvale",
    "suburb": "Aitkenvale",
    "state": "QLD",
    "postcode": "4814",
    "phone": "",
    "lat": -19.298906749999997,
    "lon": 146.76929619999999,
    "hours": ""
  },
  {
    "id": "salon-371",
    "name": "Royal Indulgence Cosmetic & Medispa Clinic",
    "address": "Kelmscott",
    "suburb": "Kelmscott",
    "state": "WA",
    "postcode": "6111",
    "phone": "",
    "lat": -32.1152072,
    "lon": 116.0243598,
    "hours": ""
  },
  {
    "id": "salon-372",
    "name": "ChemistWorks",
    "address": "Lidcombe",
    "suburb": "Lidcombe",
    "state": "NSW",
    "postcode": "2141",
    "phone": "",
    "lat": -33.865028550000005,
    "lon": 151.04913919999998,
    "hours": ""
  },
  {
    "id": "salon-373",
    "name": "Sun Spray Tanning",
    "address": "Singleton Heights",
    "suburb": "Singleton Heights",
    "state": "NSW",
    "postcode": "2330",
    "phone": "",
    "lat": -32.54022465,
    "lon": 151.16203844999998,
    "hours": ""
  },
  {
    "id": "salon-374",
    "name": "Bernadette's Beauty Clinic",
    "address": "Sarina",
    "suburb": "Sarina",
    "state": "QLD",
    "postcode": "4737",
    "phone": "",
    "lat": -21.4357495,
    "lon": 149.1833558,
    "hours": ""
  },
  {
    "id": "salon-375",
    "name": "Body Firming & Beauty",
    "address": "Pelican Point",
    "suburb": "Pelican Point",
    "state": "WA",
    "postcode": "6230",
    "phone": "",
    "lat": -33.3172739,
    "lon": 115.68839080000001,
    "hours": ""
  },
  {
    "id": "salon-376",
    "name": "Samz Beauty Spot",
    "address": "Banksia Beach",
    "suburb": "Banksia Beach",
    "state": "QLD",
    "postcode": "4507",
    "phone": "",
    "lat": -27.039340549999995,
    "lon": 153.14613094999999,
    "hours": ""
  },
  {
    "id": "salon-377",
    "name": "Bodylinc Beauty",
    "address": "Port Lincoln",
    "suburb": "Port Lincoln",
    "state": "SA",
    "postcode": "5606",
    "phone": "",
    "lat": -34.728581549999994,
    "lon": 135.8523213,
    "hours": ""
  },
  {
    "id": "salon-378",
    "name": "Amy-Jean Eye Couture",
    "address": "Main Beach",
    "suburb": "Main Beach",
    "state": "QLD",
    "postcode": "4217",
    "phone": "",
    "lat": -27.96010535,
    "lon": 153.42232125,
    "hours": ""
  },
  {
    "id": "salon-379",
    "name": "Sublime Nurturing",
    "address": "Aspley",
    "suburb": "Aspley",
    "state": "QLD",
    "postcode": "4034",
    "phone": "",
    "lat": -27.365679049999997,
    "lon": 153.01884855,
    "hours": ""
  },
  {
    "id": "salon-380",
    "name": "Peaches & Cream Hair and Beauty Salon",
    "address": "Hastings",
    "suburb": "Hastings",
    "state": "VIC",
    "postcode": "3915",
    "phone": "",
    "lat": -38.296983299999994,
    "lon": 145.1270843,
    "hours": ""
  },
  {
    "id": "salon-381",
    "name": "Amitola Beauty & Body Therapy",
    "address": "Canning Vale",
    "suburb": "Canning Vale",
    "state": "WA",
    "postcode": "6155",
    "phone": "",
    "lat": -32.0848137,
    "lon": 115.91797094999998,
    "hours": ""
  },
  {
    "id": "salon-382",
    "name": "Effekt Beauty Boutique",
    "address": "Rockhampton City",
    "suburb": "Rockhampton City",
    "state": "QLD",
    "postcode": "4700",
    "phone": "",
    "lat": -23.379381400000003,
    "lon": 150.51001324999996,
    "hours": ""
  },
  {
    "id": "salon-383",
    "name": "Refine Body",
    "address": "Alphington",
    "suburb": "Alphington",
    "state": "VIC",
    "postcode": "3078",
    "phone": "",
    "lat": -37.77810924999999,
    "lon": 145.03221985,
    "hours": ""
  },
  {
    "id": "salon-384",
    "name": "Slender Essentials",
    "address": "Hillside",
    "suburb": "Hillside",
    "state": "VIC",
    "postcode": "3037",
    "phone": "",
    "lat": -37.69102125,
    "lon": 144.74153564999997,
    "hours": ""
  },
  {
    "id": "salon-385",
    "name": "Deep Aveda Concept Salon",
    "address": "Guildford",
    "suburb": "Guildford",
    "state": "WA",
    "postcode": "6055",
    "phone": "",
    "lat": -31.8970504,
    "lon": 115.9736473,
    "hours": ""
  },
  {
    "id": "salon-386",
    "name": "Dilip Gahankari Dr",
    "address": "Benowa",
    "suburb": "Benowa",
    "state": "QLD",
    "postcode": "4217",
    "phone": "",
    "lat": -28.010588400000003,
    "lon": 153.38227415,
    "hours": ""
  },
  {
    "id": "salon-387",
    "name": "Skin ResQ Perth",
    "address": "South Perth",
    "suburb": "South Perth",
    "state": "WA",
    "postcode": "6151",
    "phone": "",
    "lat": -31.976401900000003,
    "lon": 115.86404364999999,
    "hours": ""
  },
  {
    "id": "salon-388",
    "name": "Indian Summer Beauty",
    "address": "Ivanhoe",
    "suburb": "Ivanhoe",
    "state": "VIC",
    "postcode": "3079",
    "phone": "",
    "lat": -37.76811515,
    "lon": 145.04574995,
    "hours": ""
  },
  {
    "id": "salon-389",
    "name": "Nicole Tatar Beauty Therapy",
    "address": "Elanora Heights",
    "suburb": "Elanora Heights",
    "state": "NSW",
    "postcode": "2101",
    "phone": "",
    "lat": -33.7000112,
    "lon": 151.27317765,
    "hours": ""
  },
  {
    "id": "salon-390",
    "name": "Ocean Ridge Beauty & Wellness Centre",
    "address": "Geraldton",
    "suburb": "Geraldton",
    "state": "WA",
    "postcode": "6530",
    "phone": "",
    "lat": -28.77570675,
    "lon": 114.61120139999998,
    "hours": ""
  },
  {
    "id": "salon-391",
    "name": "Sage Beauty",
    "address": "292 Campbell Parade, North Bondi",
    "suburb": "North Bondi",
    "state": "NSW",
    "postcode": "2026",
    "phone": "",
    "lat": -33.8894817,
    "lon": 151.282936,
    "hours": ""
  },
  {
    "id": "salon-392",
    "name": "Skin Dynamics Electrolysis",
    "address": "Level 1 2/ 10 Station St, Cottesloe",
    "suburb": "Cottesloe",
    "state": "WA",
    "postcode": "6011",
    "phone": "",
    "lat": -31.996877099999995,
    "lon": 115.7619917,
    "hours": ""
  },
  {
    "id": "salon-393",
    "name": "Judy's Vogue Nail & Beauty Salon",
    "address": "183A Forest Rd, Hurstville",
    "suburb": "Hurstville",
    "state": "NSW",
    "postcode": "2220",
    "phone": "",
    "lat": -33.9678034,
    "lon": 151.10507099999998,
    "hours": ""
  },
  {
    "id": "salon-394",
    "name": "InHarmony Beauty Salon",
    "address": "Lvl 1/ 68-72 The Entrance Rd, The Entrance",
    "suburb": "The Entrance",
    "state": "NSW",
    "postcode": "2261",
    "phone": "",
    "lat": -33.3444224,
    "lon": 151.4967073,
    "hours": ""
  },
  {
    "id": "salon-395",
    "name": "West Pymble Beauty Therapy",
    "address": "Shop 13, West Pymble Village, Kendall St, West Pymble",
    "suburb": "West Pymble",
    "state": "NSW",
    "postcode": "2073",
    "phone": "",
    "lat": -33.7636534,
    "lon": 151.13028035,
    "hours": ""
  },
  {
    "id": "salon-396",
    "name": "Macquarie Medi Spa",
    "address": "Shop 2/ 169 Howick St, Bathurst",
    "suburb": "Bathurst",
    "state": "NSW",
    "postcode": "2795",
    "phone": "",
    "lat": -33.4165856,
    "lon": 149.58150129999999,
    "hours": ""
  },
  {
    "id": "salon-397",
    "name": "Iris Skin & Beauty",
    "address": "Shop 7/ Moss Vale Mall Argyle St, Moss Vale",
    "suburb": "Moss Vale",
    "state": "NSW",
    "postcode": "2577",
    "phone": "",
    "lat": -34.549464150000006,
    "lon": 150.37100984999998,
    "hours": ""
  },
  {
    "id": "salon-398",
    "name": "Tranquil Beauty",
    "address": "2 Alice St, Merimbula",
    "suburb": "Merimbula",
    "state": "NSW",
    "postcode": "2548",
    "phone": "",
    "lat": -36.888181599999996,
    "lon": 149.91120039999998,
    "hours": ""
  },
  {
    "id": "salon-399",
    "name": "Skin and Beauty Clinic",
    "address": "37 Indi Ave, Red Cliffs",
    "suburb": "Red Cliffs",
    "state": "VIC",
    "postcode": "3496",
    "phone": "",
    "lat": -34.306802999999995,
    "lon": 142.18861669999998,
    "hours": ""
  },
  {
    "id": "salon-400",
    "name": "Neeri's Cleopatra Hair & Beauty",
    "address": "Shop 131, Watergardens Shopping Centre, 399 Melton Hwy, Taylors Lakes",
    "suburb": "Taylors Lakes",
    "state": "VIC",
    "postcode": "3038",
    "phone": "",
    "lat": -37.6995475,
    "lon": 144.7773828,
    "hours": ""
  },
  {
    "id": "salon-401",
    "name": "Eco Beauty Indulgence",
    "address": "Suite 7 285 Hunter St, Newcastle",
    "suburb": "Newcastle",
    "state": "NSW",
    "postcode": "2300",
    "phone": "",
    "lat": -32.9268682,
    "lon": 151.77568620000002,
    "hours": ""
  },
  {
    "id": "salon-402",
    "name": "Cairns Permanent Makeup",
    "address": "16 Trumpeter St, Kanimbla",
    "suburb": "Kanimbla",
    "state": "QLD",
    "postcode": "4870",
    "phone": "",
    "lat": -16.924945800000003,
    "lon": 145.721832,
    "hours": ""
  },
  {
    "id": "salon-403",
    "name": "Dolce Vita Beauty & Massage",
    "address": "36 Teraglin St, Manly West",
    "suburb": "Manly West",
    "state": "QLD",
    "postcode": "4179",
    "phone": "",
    "lat": -27.470836700000003,
    "lon": 153.16646609999998,
    "hours": ""
  },
  {
    "id": "salon-404",
    "name": "La Beautique",
    "address": "Unit 7 /346 Norton St, Leichhardt",
    "suburb": "Leichhardt",
    "state": "NSW",
    "postcode": "2040",
    "phone": "",
    "lat": -33.8754093,
    "lon": 151.1558737,
    "hours": ""
  },
  {
    "id": "salon-405",
    "name": "Escape Skin and Body",
    "address": "Ground Floor, T and G Building, Cnr Murray and Collins St Ground Floor 45 Murray St, Hobart",
    "suburb": "Hobart",
    "state": "TAS",
    "postcode": "7000",
    "phone": "",
    "lat": -42.88150249999999,
    "lon": 147.3233547,
    "hours": ""
  },
  {
    "id": "salon-406",
    "name": "Janessas Beauty Care",
    "address": "27 Roberta St, Tumbi Umbi",
    "suburb": "Tumbi Umbi",
    "state": "NSW",
    "postcode": "2261",
    "phone": "",
    "lat": -33.3667207,
    "lon": 151.4512311,
    "hours": ""
  },
  {
    "id": "salon-407",
    "name": "Stella Arden",
    "address": "290A Murray St, Hobart",
    "suburb": "Hobart",
    "state": "TAS",
    "postcode": "7000",
    "phone": "",
    "lat": -42.878849699999996,
    "lon": 147.3177527,
    "hours": ""
  },
  {
    "id": "salon-408",
    "name": "Sensational Beauty Therapy",
    "address": "760 High St, Thornbury",
    "suburb": "Thornbury",
    "state": "VIC",
    "postcode": "3071",
    "phone": "",
    "lat": -37.7552033,
    "lon": 145.00149349999998,
    "hours": ""
  },
  {
    "id": "salon-409",
    "name": "Nectar Body Care",
    "address": "Shop 2C 15 White St, Tamworth",
    "suburb": "Tamworth",
    "state": "NSW",
    "postcode": "2340",
    "phone": "",
    "lat": -31.093007099999998,
    "lon": 150.9334993,
    "hours": ""
  },
  {
    "id": "salon-410",
    "name": "Ultimate Care Skin And Body Centre",
    "address": "61 Church St, Mudgee",
    "suburb": "Mudgee",
    "state": "NSW",
    "postcode": "2850",
    "phone": "",
    "lat": -32.59425589999999,
    "lon": 149.5882282,
    "hours": ""
  },
  {
    "id": "salon-411",
    "name": "Ella Bache Carindale",
    "address": "Ground Floor Shop 1070 1151 Creek Rd, Carindale",
    "suburb": "Carindale",
    "state": "QLD",
    "postcode": "4152",
    "phone": "",
    "lat": -27.502884899999998,
    "lon": 153.10197355000003,
    "hours": ""
  },
  {
    "id": "salon-412",
    "name": "Lady's Beauty Care",
    "address": "Shop 2 504 Grand Junction Rd, Northfield",
    "suburb": "Northfield",
    "state": "SA",
    "postcode": "5085",
    "phone": "",
    "lat": -34.84749949999999,
    "lon": 138.6225111,
    "hours": ""
  },
  {
    "id": "salon-413",
    "name": "MP Spa & Beauty",
    "address": "8 Garnett Rd, Green Hills",
    "suburb": "Green Hills",
    "state": "NSW",
    "postcode": "2323",
    "phone": "",
    "lat": -32.763260149999994,
    "lon": 151.59083374999997,
    "hours": ""
  },
  {
    "id": "salon-414",
    "name": "Virginia's Beauty & Care",
    "address": "Shop 5/ 7 John St, Kingston",
    "suburb": "Kingston",
    "state": "TAS",
    "postcode": "7050",
    "phone": "",
    "lat": -42.9750619,
    "lon": 147.3089355,
    "hours": ""
  },
  {
    "id": "salon-415",
    "name": "Bliss Beauty & Body",
    "address": "58 Regent St, New Lambton",
    "suburb": "New Lambton",
    "state": "NSW",
    "postcode": "2305",
    "phone": "",
    "lat": -32.923314,
    "lon": 151.71313229999998,
    "hours": ""
  },
  {
    "id": "salon-416",
    "name": "Beautique Beauty Therapy Medispa",
    "address": "Platinum Building Suite 1/ 4 Ilya Ave, Erina Fair",
    "suburb": "Erina Fair",
    "state": "NSW",
    "postcode": "2250",
    "phone": "",
    "lat": -33.4379924,
    "lon": 151.38774285,
    "hours": ""
  },
  {
    "id": "salon-417",
    "name": "Beauty In Style Wynnum",
    "address": "Shop 32 Wynnum Plaza 2021 Wynnum Rd, Wynnum West",
    "suburb": "Wynnum West",
    "state": "QLD",
    "postcode": "4178",
    "phone": "",
    "lat": -27.4580396,
    "lon": 153.15436219999998,
    "hours": ""
  },
  {
    "id": "salon-418",
    "name": "Skin Rejuvenation Clinic",
    "address": "C/- City Doctors 188 Collins St, Hobart",
    "suburb": "Hobart",
    "state": "TAS",
    "postcode": "7000",
    "phone": "",
    "lat": -42.88440045,
    "lon": 147.32623174999998,
    "hours": ""
  },
  {
    "id": "salon-419",
    "name": "Ella Bache Dalby",
    "address": "Shop 4 The New St Cntr 22 New St, Dalby",
    "suburb": "Dalby",
    "state": "QLD",
    "postcode": "4405",
    "phone": "",
    "lat": -27.1782007,
    "lon": 151.26857400000003,
    "hours": ""
  },
  {
    "id": "salon-420",
    "name": "Soul La Belle Beauty & Wellbeing",
    "address": "Shop 8 Wishart Square, Cnr Newnham and Wishart Rd, Upper Mount Gravatt",
    "suburb": "Upper Mount Gravatt",
    "state": "QLD",
    "postcode": "4122",
    "phone": "",
    "lat": -27.550594800000002,
    "lon": 153.09332949999998,
    "hours": ""
  },
  {
    "id": "salon-421",
    "name": "Anjule Beauty Therapy",
    "address": "5/ 12 Bellbird Ave, Terrigal",
    "suburb": "Terrigal",
    "state": "NSW",
    "postcode": "2260",
    "phone": "",
    "lat": -33.4418279,
    "lon": 151.4331957,
    "hours": ""
  },
  {
    "id": "salon-422",
    "name": "Chloe Regan Cosmetic Clinic",
    "address": "Noosa Civic Shop CA 01/28 Eenie Creek Rd, Noosaville",
    "suburb": "Noosaville",
    "state": "QLD",
    "postcode": "4566",
    "phone": "",
    "lat": -26.415568,
    "lon": 153.0485242,
    "hours": ""
  },
  {
    "id": "salon-423",
    "name": "Bare Beauty",
    "address": "185 Booran Rd, Caulfield South",
    "suburb": "Caulfield South",
    "state": "VIC",
    "postcode": "3162",
    "phone": "",
    "lat": -37.8963737,
    "lon": 145.0360818,
    "hours": ""
  },
  {
    "id": "salon-424",
    "name": "Nature's Beauty Secrets",
    "address": "Shop 6/ 101 Station St, Ferntree Gully",
    "suburb": "Ferntree Gully",
    "state": "VIC",
    "postcode": "3156",
    "phone": "",
    "lat": -37.8828156,
    "lon": 145.2944027,
    "hours": ""
  },
  {
    "id": "salon-425",
    "name": "Silhouette Beauty Salon",
    "address": "111 Main St, Lithgow",
    "suburb": "Lithgow",
    "state": "NSW",
    "postcode": "2790",
    "phone": "",
    "lat": -33.4810704,
    "lon": 150.15719679999998,
    "hours": ""
  },
  {
    "id": "salon-426",
    "name": "Boheme",
    "address": "477 Flinders St West, Townsville City",
    "suburb": "Townsville City",
    "state": "QLD",
    "postcode": "4810",
    "phone": "",
    "lat": -19.2625585,
    "lon": 146.81454879999998,
    "hours": ""
  },
  {
    "id": "salon-427",
    "name": "Beauty At Jessica's",
    "address": "Shop 5/27 Bulcock St, Caloundra",
    "suburb": "Caloundra",
    "state": "QLD",
    "postcode": "4551",
    "phone": "",
    "lat": -26.804433300000003,
    "lon": 153.1338484,
    "hours": ""
  },
  {
    "id": "salon-428",
    "name": "Face Facts Skin Care & Make Up Studio",
    "address": "Shop 9, Mt Tarcoola Shopping Cntr, Paring St, Geraldton",
    "suburb": "Geraldton",
    "state": "WA",
    "postcode": "6530",
    "phone": "",
    "lat": -28.781482199999996,
    "lon": 114.61874795000001,
    "hours": ""
  },
  {
    "id": "salon-429",
    "name": "Vogue Beauty Clinic",
    "address": "102/ 287 Charles St, Launceston",
    "suburb": "Launceston",
    "state": "TAS",
    "postcode": "7250",
    "phone": "",
    "lat": -41.4458786,
    "lon": 147.1436558,
    "hours": ""
  },
  {
    "id": "salon-430",
    "name": "Bella Donna Laser Skin Body",
    "address": "Shop 2/ 219 Glynburn Rd, St Morris",
    "suburb": "St Morris",
    "state": "SA",
    "postcode": "5068",
    "phone": "",
    "lat": -34.908094,
    "lon": 138.65770410000002,
    "hours": ""
  },
  {
    "id": "salon-431",
    "name": "Ella Bache Dubbo",
    "address": "109 Talbragar St, Dubbo",
    "suburb": "Dubbo",
    "state": "NSW",
    "postcode": "2830",
    "phone": "",
    "lat": -32.2454858,
    "lon": 148.6048333,
    "hours": ""
  },
  {
    "id": "salon-432",
    "name": "Mombasa Day Spa and Hair Lounge",
    "address": "30 North Stuart Hwy, Alice Springs",
    "suburb": "Alice Springs",
    "state": "NT",
    "postcode": "0871",
    "phone": "",
    "lat": -23.690184,
    "lon": 133.875461,
    "hours": ""
  },
  {
    "id": "salon-433",
    "name": "New Image Salon",
    "address": "Shop 2092, Knox City Shopping Cntr, Wantirna South",
    "suburb": "Wantirna South",
    "state": "VIC",
    "postcode": "3152",
    "phone": "",
    "lat": -37.858916550000004,
    "lon": 145.23830594999998,
    "hours": ""
  },
  {
    "id": "salon-434",
    "name": "Balmain Spa & Natural Beauty",
    "address": "Shop 1 240 Darling St, Balmain",
    "suburb": "Balmain",
    "state": "NSW",
    "postcode": "2041",
    "phone": "",
    "lat": -33.858394700000005,
    "lon": 151.1839982,
    "hours": ""
  },
  {
    "id": "salon-435",
    "name": "Lush Body & Soul",
    "address": "Shop 10 Hannans Blvd, 70 Graeme St, Kalgoorlie",
    "suburb": "Kalgoorlie",
    "state": "WA",
    "postcode": "6430",
    "phone": "",
    "lat": -30.74044235,
    "lon": 121.46364095,
    "hours": ""
  },
  {
    "id": "salon-436",
    "name": "Beaushade Boutique",
    "address": "209 Nelson St, Ballarat East",
    "suburb": "Ballarat East",
    "state": "VIC",
    "postcode": "3350",
    "phone": "",
    "lat": -37.55639660000001,
    "lon": 143.8794595,
    "hours": ""
  },
  {
    "id": "salon-437",
    "name": "Vanity Face and Body",
    "address": "Shop 2a 103 Commercial St West, Mount Gambier",
    "suburb": "Mount Gambier",
    "state": "SA",
    "postcode": "5290",
    "phone": "",
    "lat": -37.827539099999996,
    "lon": 140.77655009999998,
    "hours": ""
  },
  {
    "id": "salon-438",
    "name": "The Beauty Secret Dubbo",
    "address": "77 Myall St, Dubbo",
    "suburb": "Dubbo",
    "state": "NSW",
    "postcode": "2830",
    "phone": "",
    "lat": -32.2423607,
    "lon": 148.62548554999998,
    "hours": ""
  },
  {
    "id": "salon-439",
    "name": "Brazilian Glow_2",
    "address": "4 Cox's Gdn, Williamstown",
    "suburb": "Williamstown",
    "state": "VIC",
    "postcode": "3016",
    "phone": "",
    "lat": -37.858558699999996,
    "lon": 144.8988853,
    "hours": ""
  },
  {
    "id": "salon-440",
    "name": "Wax On Echuca",
    "address": "59 Nish St, Echuca",
    "suburb": "Echuca",
    "state": "VIC",
    "postcode": "3564",
    "phone": "",
    "lat": -36.127986,
    "lon": 144.7506329,
    "hours": ""
  },
  {
    "id": "salon-441",
    "name": "Beautylicious By Rita",
    "address": "9 Northcott Cl, South Tamworth",
    "suburb": "South Tamworth",
    "state": "NSW",
    "postcode": "2340",
    "phone": "",
    "lat": -31.105380999999998,
    "lon": 150.9072238,
    "hours": ""
  },
  {
    "id": "salon-442",
    "name": "Skin Sensations",
    "address": "83 Madison Way, Allambie Heights",
    "suburb": "Allambie Heights",
    "state": "NSW",
    "postcode": "2100",
    "phone": "",
    "lat": -33.7577163,
    "lon": 151.2394263,
    "hours": ""
  },
  {
    "id": "salon-443",
    "name": "Barbara's Beauty & Nails",
    "address": "2 Illawarra Ct, Beaconsfield",
    "suburb": "Beaconsfield",
    "state": "QLD",
    "postcode": "4740",
    "phone": "",
    "lat": -21.096798099999994,
    "lon": 149.169779,
    "hours": ""
  },
  {
    "id": "salon-444",
    "name": "For The Love Of Beauty",
    "address": "3A William St, Hornsby",
    "suburb": "Hornsby",
    "state": "NSW",
    "postcode": "2077",
    "phone": "",
    "lat": -33.704030200000005,
    "lon": 151.0966746,
    "hours": ""
  },
  {
    "id": "salon-445",
    "name": "Cheeky Bits Boutique Beauty Spa and Hair Salon",
    "address": "Woolworth Complex - Shop T 2 / 87 -89 Gavan St, Bright",
    "suburb": "Bright",
    "state": "VIC",
    "postcode": "3741",
    "phone": "",
    "lat": -36.727344599999995,
    "lon": 146.9589642,
    "hours": ""
  },
  {
    "id": "salon-446",
    "name": "You At Georgie's",
    "address": "Olympia Arcade Shop 5/ 99 Marshall St, Goondiwindi",
    "suburb": "Goondiwindi",
    "state": "QLD",
    "postcode": "4390",
    "phone": "",
    "lat": -28.547404699999998,
    "lon": 150.3114037,
    "hours": ""
  },
  {
    "id": "salon-447",
    "name": "The Hairy Chair",
    "address": "Shop 1 2077 Moggill Rd, Kenmore",
    "suburb": "Kenmore",
    "state": "QLD",
    "postcode": "4069",
    "phone": "",
    "lat": -27.508720099999998,
    "lon": 152.9379899,
    "hours": ""
  },
  {
    "id": "salon-448",
    "name": "Beauty @ Bardon",
    "address": "160 Boundary Rd, Bardon",
    "suburb": "Bardon",
    "state": "QLD",
    "postcode": "4065",
    "phone": "",
    "lat": -27.4668145,
    "lon": 152.9855021,
    "hours": ""
  },
  {
    "id": "salon-449",
    "name": "Sheer Serenity Skin & Beauty",
    "address": "Level 1 Shop 23 High Street 310-312 Bong Bong St, Bowral",
    "suburb": "Bowral",
    "state": "NSW",
    "postcode": "2576",
    "phone": "",
    "lat": -34.479600149999996,
    "lon": 150.41775405,
    "hours": ""
  },
  {
    "id": "salon-450",
    "name": "Eye Spy Beauty",
    "address": "127 Kendal St, Cowra",
    "suburb": "Cowra",
    "state": "NSW",
    "postcode": "2794",
    "phone": "",
    "lat": -33.8351468,
    "lon": 148.6922943,
    "hours": ""
  },
  {
    "id": "salon-451",
    "name": "Complete Skin Care",
    "address": "2c/ 2 Marco Ave, Revesby",
    "suburb": "Revesby",
    "state": "NSW",
    "postcode": "2212",
    "phone": "",
    "lat": -33.951588400000006,
    "lon": 151.0170812,
    "hours": ""
  },
  {
    "id": "salon-452",
    "name": "Body Essentials By Cilla",
    "address": "11 William St, Berri",
    "suburb": "Berri",
    "state": "SA",
    "postcode": "5343",
    "phone": "",
    "lat": -34.2864408,
    "lon": 140.600384,
    "hours": ""
  },
  {
    "id": "salon-453",
    "name": "Beauty Plus on Main",
    "address": "278 Main Rd, Cardiff",
    "suburb": "Cardiff",
    "state": "NSW",
    "postcode": "2285",
    "phone": "",
    "lat": -32.9400164,
    "lon": 151.6599341,
    "hours": ""
  },
  {
    "id": "salon-454",
    "name": "Bright & White Teeth Whitening",
    "address": "Unit 1 8 Wandal Rd, Wandal",
    "suburb": "Wandal",
    "state": "QLD",
    "postcode": "4700",
    "phone": "",
    "lat": -23.368322499999994,
    "lon": 150.4977935,
    "hours": ""
  },
  {
    "id": "salon-455",
    "name": "Bare Aesthetics QLD",
    "address": "Shop 306 C/O Mercure Hotel 166 Woolcock, Currajong",
    "suburb": "Currajong",
    "state": "QLD",
    "postcode": "4812",
    "phone": "",
    "lat": -19.2714924,
    "lon": 146.7859224,
    "hours": ""
  },
  {
    "id": "salon-456",
    "name": "The Beauty Store Goulburn",
    "address": "The Old Corner Store 190 Cowper St, Goulburn",
    "suburb": "Goulburn",
    "state": "NSW",
    "postcode": "2580",
    "phone": "",
    "lat": -34.745972849999994,
    "lon": 149.72363744999998,
    "hours": ""
  },
  {
    "id": "salon-457",
    "name": "Mim's Natural Beauty",
    "address": "34 Power St, Timboon",
    "suburb": "Timboon",
    "state": "VIC",
    "postcode": "3268",
    "phone": "",
    "lat": -38.4764492,
    "lon": 142.9699624,
    "hours": ""
  },
  {
    "id": "salon-458",
    "name": "Ursula's Relaxation & Beauty Therapies",
    "address": "38 Edith St, Innisfail",
    "suburb": "Innisfail",
    "state": "QLD",
    "postcode": "4860",
    "phone": "",
    "lat": -17.524473,
    "lon": 146.030227,
    "hours": ""
  },
  {
    "id": "salon-459",
    "name": "ME 2U Beauty",
    "address": "32 Granite St, Port Macquarie",
    "suburb": "Port Macquarie",
    "state": "NSW",
    "postcode": "2444",
    "phone": "",
    "lat": -31.440664400000006,
    "lon": 152.9147457,
    "hours": ""
  },
  {
    "id": "salon-460",
    "name": "Tropaz - Gayle's Hair Designs & Beauty",
    "address": "Fernlands Shopping Village, Shop 3, 10 Woodhill Rd, Ferny Hills",
    "suburb": "Ferny Hills",
    "state": "QLD",
    "postcode": "4055",
    "phone": "",
    "lat": -27.384236350000002,
    "lon": 152.9429928,
    "hours": ""
  },
  {
    "id": "salon-461",
    "name": "Body Techniques",
    "address": "8 Roderick St, Ipswich",
    "suburb": "Ipswich",
    "state": "QLD",
    "postcode": "4305",
    "phone": "",
    "lat": -27.6187301,
    "lon": 152.76387889999998,
    "hours": ""
  },
  {
    "id": "salon-462",
    "name": "Deb's Salon",
    "address": "5 The Lakes Dr, Glenmore Park",
    "suburb": "Glenmore Park",
    "state": "NSW",
    "postcode": "2745",
    "phone": "",
    "lat": -33.785321599999996,
    "lon": 150.68409119999998,
    "hours": ""
  },
  {
    "id": "salon-463",
    "name": "Be Naturally You",
    "address": "22 Seventh Ave, Palm Beach",
    "suburb": "Palm Beach",
    "state": "QLD",
    "postcode": "4221",
    "phone": "",
    "lat": -28.119932699999996,
    "lon": 153.4704124,
    "hours": ""
  },
  {
    "id": "salon-464",
    "name": "Swish Beauty",
    "address": "Shop 1 24-26 Dorothy St, Leopold",
    "suburb": "Leopold",
    "state": "VIC",
    "postcode": "3224",
    "phone": "",
    "lat": -38.1870793,
    "lon": 144.471072,
    "hours": ""
  },
  {
    "id": "salon-465",
    "name": "Casquade Body Essentials",
    "address": "166 Eighth St, Mildura",
    "suburb": "Mildura",
    "state": "VIC",
    "postcode": "3500",
    "phone": "",
    "lat": -34.1818057,
    "lon": 142.15908149999998,
    "hours": ""
  },
  {
    "id": "salon-466",
    "name": "Australian Beauty Clinic",
    "address": "105 2-8 Brookhollow Ave, Norwest",
    "suburb": "Norwest",
    "state": "NSW",
    "postcode": "2153",
    "phone": "",
    "lat": -33.733064299999995,
    "lon": 150.9711539,
    "hours": ""
  },
  {
    "id": "salon-467",
    "name": "Renajo Skin Clinic",
    "address": "17 Mosman Cl, Wantirna South",
    "suburb": "Wantirna South",
    "state": "VIC",
    "postcode": "3152",
    "phone": "",
    "lat": -37.875456799999995,
    "lon": 145.2267075,
    "hours": ""
  },
  {
    "id": "salon-468",
    "name": "The Retreat - Massage, Body & Skin Therapy Clinic",
    "address": "Suite 2 382 Raymond St, Sale",
    "suburb": "Sale",
    "state": "VIC",
    "postcode": "3850",
    "phone": "",
    "lat": -38.1046974,
    "lon": 147.0657053,
    "hours": ""
  },
  {
    "id": "salon-469",
    "name": "Your Place Or Mine Hair Design",
    "address": "212 Anson Street, Orange",
    "suburb": "Orange",
    "state": "NSW",
    "postcode": "2800",
    "phone": "",
    "lat": -33.282926599999996,
    "lon": 149.0993775,
    "hours": ""
  },
  {
    "id": "salon-470",
    "name": "Pure Elegance Beauty",
    "address": "Ste 1/ 27 Goolwa Rd, Middleton",
    "suburb": "Middleton",
    "state": "SA",
    "postcode": "5213",
    "phone": "",
    "lat": -35.5095312,
    "lon": 138.7071688,
    "hours": ""
  },
  {
    "id": "salon-471",
    "name": "The Beauty Studio 24",
    "address": "2066 Murphys Creek Rd, Ballard",
    "suburb": "Ballard",
    "state": "QLD",
    "postcode": "4352",
    "phone": "",
    "lat": -27.4732454,
    "lon": 151.96938440000002,
    "hours": ""
  },
  {
    "id": "salon-472",
    "name": "Goulburn Day Spa",
    "address": "88 Bourke St, Goulburn",
    "suburb": "Goulburn",
    "state": "NSW",
    "postcode": "2580",
    "phone": "",
    "lat": -34.75797479999999,
    "lon": 149.7119299,
    "hours": ""
  },
  {
    "id": "salon-473",
    "name": "SkinSpirit Day Spa",
    "address": "212 Cracknell Rd, Tarragindi",
    "suburb": "Tarragindi",
    "state": "QLD",
    "postcode": "4121",
    "phone": "",
    "lat": -27.519990299999996,
    "lon": 153.0409046,
    "hours": ""
  },
  {
    "id": "salon-474",
    "name": "Beauty Benefits",
    "address": "Shop 5 665 Grange Rd, Grange",
    "suburb": "Grange",
    "state": "SA",
    "postcode": "5022",
    "phone": "",
    "lat": -34.90722609999999,
    "lon": 138.4930962,
    "hours": ""
  },
  {
    "id": "salon-475",
    "name": "Beauty At Rivoli",
    "address": "Shop 2/ 124-140 Smith St, Naracoorte",
    "suburb": "Naracoorte",
    "state": "SA",
    "postcode": "5271",
    "phone": "",
    "lat": -36.9560182,
    "lon": 140.74328115000003,
    "hours": ""
  },
  {
    "id": "salon-476",
    "name": "Interlude Natural Beauty Therapy & Perfumery",
    "address": "10 - 12 Leake St, Essendon",
    "suburb": "Essendon",
    "state": "VIC",
    "postcode": "3040",
    "phone": "",
    "lat": -37.74656,
    "lon": 144.910023,
    "hours": ""
  },
  {
    "id": "salon-477",
    "name": "The Heart Of Beauty",
    "address": "7/ 8 Grebe St, Peregian Beach",
    "suburb": "Peregian Beach",
    "state": "QLD",
    "postcode": "4573",
    "phone": "",
    "lat": -26.4814574,
    "lon": 153.0960802,
    "hours": ""
  },
  {
    "id": "salon-478",
    "name": "Hair to Impress",
    "address": "16 Anglesea Lane, Seaford Rise",
    "suburb": "Seaford Rise",
    "state": "SA",
    "postcode": "5169",
    "phone": "",
    "lat": -35.2127759,
    "lon": 138.4868084,
    "hours": ""
  },
  {
    "id": "salon-479",
    "name": "Beauty Sense",
    "address": "Lvl 1 Room 5 26 Baynes St, Margate",
    "suburb": "Margate",
    "state": "QLD",
    "postcode": "4019",
    "phone": "",
    "lat": -27.243697700000002,
    "lon": 153.1080328,
    "hours": ""
  },
  {
    "id": "salon-480",
    "name": "La Bella Beauty Salon",
    "address": "Suite 20/ 18 Duff Pl, Deakin",
    "suburb": "Deakin",
    "state": "ACT",
    "postcode": "2600",
    "phone": "",
    "lat": -35.314651500000004,
    "lon": 149.1076775,
    "hours": ""
  },
  {
    "id": "salon-481",
    "name": "Polish Beauty Therapy",
    "address": "130 Docker St, Wagga Wagga",
    "suburb": "Wagga Wagga",
    "state": "NSW",
    "postcode": "2650",
    "phone": "",
    "lat": -35.1119809,
    "lon": 147.3577061,
    "hours": ""
  },
  {
    "id": "salon-482",
    "name": "Beauty For You",
    "address": "23 Alexander St, Port Pirie",
    "suburb": "Port Pirie",
    "state": "SA",
    "postcode": "5540",
    "phone": "",
    "lat": -33.17738,
    "lon": 138.0090199,
    "hours": ""
  },
  {
    "id": "salon-483",
    "name": "Winz Nailz & Beauty",
    "address": "42 Bass St, Toowoomba",
    "suburb": "Toowoomba",
    "state": "QLD",
    "postcode": "4350",
    "phone": "",
    "lat": -27.585228,
    "lon": 151.9653501,
    "hours": ""
  },
  {
    "id": "salon-484",
    "name": "Collaroy Skin Care & Beauty Retreat",
    "address": "Shop 3/ 1073 Pittwater Rd, Collaroy",
    "suburb": "Collaroy",
    "state": "NSW",
    "postcode": "2097",
    "phone": "",
    "lat": -33.733438899999996,
    "lon": 151.3015178,
    "hours": ""
  },
  {
    "id": "salon-485",
    "name": "Pure Skin & Laser Therapy",
    "address": "Shop 2 / 10 Adams Lane, Berwick",
    "suburb": "Berwick",
    "state": "VIC",
    "postcode": "3806",
    "phone": "",
    "lat": -38.0316056,
    "lon": 145.3446592,
    "hours": ""
  },
  {
    "id": "salon-486",
    "name": "Port Fairy Day Spa",
    "address": "56 Bank St, Port Fairy",
    "suburb": "Port Fairy",
    "state": "VIC",
    "postcode": "3284",
    "phone": "",
    "lat": -38.3825711,
    "lon": 142.2328008,
    "hours": ""
  },
  {
    "id": "salon-487",
    "name": "Synergy Beauty Therapy",
    "address": "Shop 2/ 64 Manning St, Kiama",
    "suburb": "Kiama",
    "state": "NSW",
    "postcode": "2533",
    "phone": "",
    "lat": -34.6739599,
    "lon": 150.85500720000002,
    "hours": ""
  },
  {
    "id": "salon-488",
    "name": "Aveta Hair and Body",
    "address": "25 Gawler St, Port Noarlunga",
    "suburb": "Port Noarlunga",
    "state": "SA",
    "postcode": "5167",
    "phone": "",
    "lat": -35.1485882,
    "lon": 138.4719743,
    "hours": ""
  },
  {
    "id": "salon-489",
    "name": "Touch Of Style Hair & Beauty",
    "address": "Allenstown",
    "suburb": "Allenstown",
    "state": "QLD",
    "postcode": "4700",
    "phone": "",
    "lat": -23.395881949999996,
    "lon": 150.50424435,
    "hours": ""
  },
  {
    "id": "salon-490",
    "name": "Beauty Sense",
    "address": "Fremantle",
    "suburb": "Fremantle",
    "state": "WA",
    "postcode": "6160",
    "phone": "",
    "lat": -32.05256315,
    "lon": 115.75595979999999,
    "hours": ""
  },
  {
    "id": "salon-491",
    "name": "Ella Bache Balmain",
    "address": "Balmain",
    "suburb": "Balmain",
    "state": "NSW",
    "postcode": "2041",
    "phone": "",
    "lat": -33.8583275,
    "lon": 151.18069365,
    "hours": ""
  },
  {
    "id": "salon-492",
    "name": "Ultimate Skin Clinics Australia Pty Ltd",
    "address": "Urraween",
    "suburb": "Urraween",
    "state": "QLD",
    "postcode": "4655",
    "phone": "",
    "lat": -25.29877975,
    "lon": 152.82031025,
    "hours": ""
  },
  {
    "id": "salon-493",
    "name": "Papillon Academy of Beauty Therapy",
    "address": "Hobart",
    "suburb": "Hobart",
    "state": "TAS",
    "postcode": "7000",
    "phone": "",
    "lat": -42.8823402,
    "lon": 147.32855635,
    "hours": ""
  },
  {
    "id": "salon-494",
    "name": "Eternal Beauty - Ella Bache",
    "address": "Port Melbourne",
    "suburb": "Port Melbourne",
    "state": "VIC",
    "postcode": "3207",
    "phone": "",
    "lat": -37.83454115,
    "lon": 144.923369,
    "hours": ""
  },
  {
    "id": "salon-495",
    "name": "Albany Amcal Beauty For Life",
    "address": "Albany",
    "suburb": "Albany",
    "state": "WA",
    "postcode": "6330",
    "phone": "",
    "lat": -35.02806705,
    "lon": 117.88418184999999,
    "hours": ""
  },
  {
    "id": "salon-496",
    "name": "Rena Kan Cosmetics Pty Ltd",
    "address": "Double Bay",
    "suburb": "Double Bay",
    "state": "NSW",
    "postcode": "2028",
    "phone": "",
    "lat": -33.87908445,
    "lon": 151.24314819999998,
    "hours": ""
  },
  {
    "id": "salon-497",
    "name": "Endulge Beauty",
    "address": "Narrabri",
    "suburb": "Narrabri",
    "state": "NSW",
    "postcode": "2390",
    "phone": "",
    "lat": -30.226492800000003,
    "lon": 149.77645374999997,
    "hours": ""
  },
  {
    "id": "salon-498",
    "name": "Emerge Skin And Laser Clinic",
    "address": "Wheelers Hill",
    "suburb": "Wheelers Hill",
    "state": "VIC",
    "postcode": "3150",
    "phone": "",
    "lat": -37.90732495,
    "lon": 145.18447465,
    "hours": ""
  },
  {
    "id": "salon-499",
    "name": "Chameleon Beauty & Nails",
    "address": "Maryborough",
    "suburb": "Maryborough",
    "state": "QLD",
    "postcode": "4650",
    "phone": "",
    "lat": -25.539599199999998,
    "lon": 152.70043245,
    "hours": ""
  },
  {
    "id": "salon-500",
    "name": "Peel & Squeal Beauty Salon",
    "address": "Balgowlah",
    "suburb": "Balgowlah",
    "state": "NSW",
    "postcode": "2093",
    "phone": "",
    "lat": -33.794528799999995,
    "lon": 151.26121384999996,
    "hours": ""
  },
  {
    "id": "salon-501",
    "name": "Hand & Body Concepts",
    "address": "Coffs Harbour",
    "suburb": "Coffs Harbour",
    "state": "NSW",
    "postcode": "2450",
    "phone": "",
    "lat": -30.308397000000003,
    "lon": 153.1073475,
    "hours": ""
  },
  {
    "id": "salon-502",
    "name": "The Body & Face Place",
    "address": "Geelong",
    "suburb": "Geelong",
    "state": "VIC",
    "postcode": "3220",
    "phone": "",
    "lat": -38.1481403,
    "lon": 144.36288325,
    "hours": ""
  },
  {
    "id": "salon-503",
    "name": "Glamour Nails & Waxing",
    "address": "Burpengary",
    "suburb": "Burpengary",
    "state": "QLD",
    "postcode": "4505",
    "phone": "",
    "lat": -27.155373849999997,
    "lon": 152.95087505,
    "hours": ""
  },
  {
    "id": "salon-504",
    "name": "Blush Organic Beauty",
    "address": "Forbes",
    "suburb": "Forbes",
    "state": "NSW",
    "postcode": "2871",
    "phone": "",
    "lat": -33.3899333,
    "lon": 148.000514,
    "hours": ""
  },
  {
    "id": "salon-505",
    "name": "Beautiful Image",
    "address": "Dubbo",
    "suburb": "Dubbo",
    "state": "NSW",
    "postcode": "2830",
    "phone": "",
    "lat": -32.2814115,
    "lon": 148.60432275,
    "hours": ""
  },
  {
    "id": "salon-506",
    "name": "All Over Beauty & Medi Spa",
    "address": "Forresters Beach",
    "suburb": "Forresters Beach",
    "state": "NSW",
    "postcode": "2260",
    "phone": "",
    "lat": -33.408886599999995,
    "lon": 151.46946665000002,
    "hours": ""
  },
  {
    "id": "salon-507",
    "name": "Olli Skin",
    "address": "Camp Hill",
    "suburb": "Camp Hill",
    "state": "QLD",
    "postcode": "4152",
    "phone": "",
    "lat": -27.49733985,
    "lon": 153.07568465,
    "hours": ""
  },
  {
    "id": "salon-508",
    "name": "Ella Bache Newmarket",
    "address": "Newmarket",
    "suburb": "Newmarket",
    "state": "QLD",
    "postcode": "4051",
    "phone": "",
    "lat": -27.43510385,
    "lon": 153.00770609999998,
    "hours": ""
  },
  {
    "id": "salon-509",
    "name": "Beauty Blitz Tas",
    "address": "Old Beach",
    "suburb": "Old Beach",
    "state": "TAS",
    "postcode": "7017",
    "phone": "",
    "lat": -42.75837415,
    "lon": 147.30052805,
    "hours": ""
  },
  {
    "id": "salon-510",
    "name": "Medicine Chest Pharmacy",
    "address": "Port Macquarie",
    "suburb": "Port Macquarie",
    "state": "NSW",
    "postcode": "2444",
    "phone": "",
    "lat": -31.461215250000006,
    "lon": 152.89319390000003,
    "hours": ""
  },
  {
    "id": "salon-511",
    "name": "Tranquil Nails",
    "address": "Brighton",
    "suburb": "Brighton",
    "state": "VIC",
    "postcode": "3186",
    "phone": "",
    "lat": -37.9078436,
    "lon": 144.99603075,
    "hours": ""
  },
  {
    "id": "salon-512",
    "name": "Joanne's Just Body Health & Beauty Therapy",
    "address": "Mt Martha",
    "suburb": "Mt Martha",
    "state": "VIC",
    "postcode": "3934",
    "phone": "",
    "lat": -38.2737811,
    "lon": 145.03085249999998,
    "hours": ""
  },
  {
    "id": "salon-513",
    "name": "Merimbula Body & Skin Care",
    "address": "Merimbula",
    "suburb": "Merimbula",
    "state": "NSW",
    "postcode": "2548",
    "phone": "",
    "lat": -36.8961994,
    "lon": 149.90427949999997,
    "hours": ""
  },
  {
    "id": "salon-514",
    "name": "Unique Nails By Laila",
    "address": "Mermaid Waters",
    "suburb": "Mermaid Waters",
    "state": "QLD",
    "postcode": "4218",
    "phone": "",
    "lat": -28.0524852,
    "lon": 153.4220461,
    "hours": ""
  },
  {
    "id": "salon-515",
    "name": "Allure Clinic",
    "address": "East Toowoomba",
    "suburb": "East Toowoomba",
    "state": "QLD",
    "postcode": "4350",
    "phone": "",
    "lat": -27.56226105,
    "lon": 151.9689468,
    "hours": ""
  },
  {
    "id": "salon-516",
    "name": "Vibrant Skin Hair & Beauty",
    "address": "Winmalee",
    "suburb": "Winmalee",
    "state": "NSW",
    "postcode": "2777",
    "phone": "",
    "lat": -33.6780724,
    "lon": 150.61120455,
    "hours": ""
  },
  {
    "id": "salon-517",
    "name": "Dermal Essence",
    "address": "Darwin City",
    "suburb": "Darwin City",
    "state": "NT",
    "postcode": "0800",
    "phone": "",
    "lat": -12.463000899999999,
    "lon": 130.8426151,
    "hours": ""
  },
  {
    "id": "salon-518",
    "name": "Total Skin",
    "address": "Dudley Park",
    "suburb": "Dudley Park",
    "state": "WA",
    "postcode": "6210",
    "phone": "",
    "lat": -32.5571936,
    "lon": 115.72896600000001,
    "hours": ""
  },
  {
    "id": "salon-519",
    "name": "Mojo Spray Tanning",
    "address": "Nelson Bay",
    "suburb": "Nelson Bay",
    "state": "NSW",
    "postcode": "2315",
    "phone": "",
    "lat": -32.736821400000004,
    "lon": 152.13914574999998,
    "hours": ""
  },
  {
    "id": "salon-520",
    "name": "Bliss Beauty and Cosmetic Tattoo",
    "address": "Burwood",
    "suburb": "Burwood",
    "state": "VIC",
    "postcode": "3125",
    "phone": "",
    "lat": -37.84872565,
    "lon": 145.11361354999997,
    "hours": ""
  },
  {
    "id": "salon-521",
    "name": "Pure Serenity Beauty Therapy",
    "address": "Katoomba",
    "suburb": "Katoomba",
    "state": "NSW",
    "postcode": "2780",
    "phone": "",
    "lat": -33.703938799999996,
    "lon": 150.29545509999997,
    "hours": ""
  },
  {
    "id": "salon-522",
    "name": "Susan's Beauty Aromatherapist",
    "address": "Mt Gravatt East",
    "suburb": "Mt Gravatt East",
    "state": "QLD",
    "postcode": "4122",
    "phone": "",
    "lat": -27.529822999999997,
    "lon": 153.0849833,
    "hours": ""
  },
  {
    "id": "salon-523",
    "name": "Emporio Nails & Beauty",
    "address": "Haberfield",
    "suburb": "Haberfield",
    "state": "NSW",
    "postcode": "2045",
    "phone": "",
    "lat": -33.87967264999999,
    "lon": 151.1391048,
    "hours": ""
  },
  {
    "id": "salon-524",
    "name": "The Beauty Pavillion",
    "address": "Mt Waverley",
    "suburb": "Mt Waverley",
    "state": "VIC",
    "postcode": "3149",
    "phone": "",
    "lat": -37.87838475,
    "lon": 145.12845095,
    "hours": ""
  },
  {
    "id": "salon-525",
    "name": "Embellir Brow and Beauty Bar",
    "address": "Bangalow",
    "suburb": "Bangalow",
    "state": "NSW",
    "postcode": "2479",
    "phone": "",
    "lat": -28.680622500000002,
    "lon": 153.52396675,
    "hours": ""
  },
  {
    "id": "salon-526",
    "name": "Melissa Young Beauty",
    "address": "Glebe",
    "suburb": "Glebe",
    "state": "NSW",
    "postcode": "2037",
    "phone": "",
    "lat": -33.8778562,
    "lon": 151.18625784999998,
    "hours": ""
  },
  {
    "id": "salon-527",
    "name": "Ella Grace Beauty",
    "address": "Tweed Heads South",
    "suburb": "Tweed Heads South",
    "state": "NSW",
    "postcode": "2486",
    "phone": "",
    "lat": -28.19801635,
    "lon": 153.53241329999997,
    "hours": ""
  },
  {
    "id": "salon-528",
    "name": "Deziner Beauty",
    "address": "Queanbeyan",
    "suburb": "Queanbeyan",
    "state": "NSW",
    "postcode": "2620",
    "phone": "",
    "lat": -35.35236525,
    "lon": 149.2295292,
    "hours": ""
  },
  {
    "id": "salon-529",
    "name": "Your Indulgence Skin Clinic",
    "address": "Glen Waverley",
    "suburb": "Glen Waverley",
    "state": "VIC",
    "postcode": "3150",
    "phone": "",
    "lat": -37.88232209999999,
    "lon": 145.1716242,
    "hours": ""
  },
  {
    "id": "salon-530",
    "name": "Ella Bache Echuca",
    "address": "Echuca",
    "suburb": "Echuca",
    "state": "VIC",
    "postcode": "3564",
    "phone": "",
    "lat": -36.1549356,
    "lon": 144.7617932,
    "hours": ""
  },
  {
    "id": "salon-531",
    "name": "Elleebana School of Beauty Therapy",
    "address": "Phillip",
    "suburb": "Phillip",
    "state": "ACT",
    "postcode": "2606",
    "phone": "",
    "lat": -35.346951,
    "lon": 149.09150055,
    "hours": ""
  },
  {
    "id": "salon-532",
    "name": "Harbour Hair Design & Beauty",
    "address": "Coffs Harbour",
    "suburb": "Coffs Harbour",
    "state": "NSW",
    "postcode": "2450",
    "phone": "",
    "lat": -30.308397000000003,
    "lon": 153.1073475,
    "hours": ""
  },
  {
    "id": "salon-533",
    "name": "Forever & Always Beauty & Nails",
    "address": "Redcliffe",
    "suburb": "Redcliffe",
    "state": "QLD",
    "postcode": "4020",
    "phone": "",
    "lat": -27.2146539,
    "lon": 153.0960902,
    "hours": ""
  },
  {
    "id": "salon-534",
    "name": "Brisbane Nails Supplies",
    "address": "Carseldine",
    "suburb": "Carseldine",
    "state": "QLD",
    "postcode": "4034",
    "phone": "",
    "lat": -27.34581685,
    "lon": 153.01852620000003,
    "hours": ""
  },
  {
    "id": "salon-535",
    "name": "MMM Thai Nails Art & Artistry Skin Care",
    "address": "Mittagong",
    "suburb": "Mittagong",
    "state": "NSW",
    "postcode": "2575",
    "phone": "",
    "lat": -34.4667815,
    "lon": 150.47089139999997,
    "hours": ""
  },
  {
    "id": "salon-536",
    "name": "The Facial Hub",
    "address": "Ascot",
    "suburb": "Ascot",
    "state": "QLD",
    "postcode": "4007",
    "phone": "",
    "lat": -27.43436445,
    "lon": 153.06799575,
    "hours": ""
  },
  {
    "id": "salon-537",
    "name": "Chelsea Cooper Photography",
    "address": "Deebing Heights",
    "suburb": "Deebing Heights",
    "state": "QLD",
    "postcode": "4306",
    "phone": "",
    "lat": -27.6849035,
    "lon": 152.76149759999998,
    "hours": ""
  },
  {
    "id": "salon-538",
    "name": "Beauty Hub Australia",
    "address": "Chermside",
    "suburb": "Chermside",
    "state": "QLD",
    "postcode": "4032",
    "phone": "",
    "lat": -27.3853929,
    "lon": 153.02328544999997,
    "hours": ""
  },
  {
    "id": "salon-539",
    "name": "Brow Boutique By Marina",
    "address": "Hoxton Park",
    "suburb": "Hoxton Park",
    "state": "NSW",
    "postcode": "2171",
    "phone": "",
    "lat": -33.92992095,
    "lon": 150.85991315,
    "hours": ""
  },
  {
    "id": "salon-540",
    "name": "BeautyWorks",
    "address": "South Melbourne",
    "suburb": "South Melbourne",
    "state": "VIC",
    "postcode": "3205",
    "phone": "",
    "lat": -37.834063400000005,
    "lon": 144.9560539,
    "hours": ""
  },
  {
    "id": "salon-541",
    "name": "Cinnamon Skincare Studio",
    "address": "Butler",
    "suburb": "Butler",
    "state": "WA",
    "postcode": "6036",
    "phone": "",
    "lat": -31.644151899999997,
    "lon": 115.69421244999998,
    "hours": ""
  },
  {
    "id": "salon-542",
    "name": "Glow Dermal Spa",
    "address": "Wanneroo",
    "suburb": "Wanneroo",
    "state": "WA",
    "postcode": "6065",
    "phone": "",
    "lat": -31.753010999999994,
    "lon": 115.81029215000001,
    "hours": ""
  },
  {
    "id": "salon-543",
    "name": "Ambience Massage & Beauty Therapy",
    "address": "Moss Vale",
    "suburb": "Moss Vale",
    "state": "NSW",
    "postcode": "2577",
    "phone": "",
    "lat": -34.5549473,
    "lon": 150.3946812,
    "hours": ""
  },
  {
    "id": "salon-544",
    "name": "Beauty On Barker",
    "address": "Casino",
    "suburb": "Casino",
    "state": "NSW",
    "postcode": "2470",
    "phone": "",
    "lat": -28.85148305,
    "lon": 153.03273495,
    "hours": ""
  },
  {
    "id": "salon-545",
    "name": "Opal Skin & Beauty",
    "address": "Wynnum",
    "suburb": "Wynnum",
    "state": "QLD",
    "postcode": "4178",
    "phone": "",
    "lat": -27.4377629,
    "lon": 153.1680586,
    "hours": ""
  },
  {
    "id": "salon-546",
    "name": "Wodonga Beauty Room",
    "address": "Wodonga",
    "suburb": "Wodonga",
    "state": "VIC",
    "postcode": "3690",
    "phone": "",
    "lat": -36.1168777,
    "lon": 146.84841244999998,
    "hours": ""
  },
  {
    "id": "salon-547",
    "name": "Fernwood Beauty Therapy",
    "address": "Bendigo",
    "suburb": "Bendigo",
    "state": "VIC",
    "postcode": "3550",
    "phone": "",
    "lat": -36.75617985,
    "lon": 144.28015195,
    "hours": ""
  },
  {
    "id": "salon-548",
    "name": "Relief Hairdressing & Beauty Salon",
    "address": "Hawthorn",
    "suburb": "Hawthorn",
    "state": "VIC",
    "postcode": "3122",
    "phone": "",
    "lat": -37.82851645,
    "lon": 145.0304398,
    "hours": ""
  },
  {
    "id": "salon-549",
    "name": "Ella Bache Palmerston",
    "address": "Palmerston City",
    "suburb": "Palmerston City",
    "state": "NT",
    "postcode": "0830",
    "phone": "",
    "lat": -12.478559950000001,
    "lon": 130.9850677,
    "hours": ""
  },
  {
    "id": "salon-550",
    "name": "Rocks Beauty Therapy",
    "address": "South West Rocks",
    "suburb": "South West Rocks",
    "state": "NSW",
    "postcode": "2431",
    "phone": "",
    "lat": -30.895177199999996,
    "lon": 153.04052444999996,
    "hours": ""
  },
  {
    "id": "salon-551",
    "name": "Amarin Hair & Beauty",
    "address": "Greenacres",
    "suburb": "Greenacres",
    "state": "SA",
    "postcode": "5086",
    "phone": "",
    "lat": -34.8685302,
    "lon": 138.62844395,
    "hours": ""
  },
  {
    "id": "salon-552",
    "name": "Beauty By Karen",
    "address": "Wallaroo",
    "suburb": "Wallaroo",
    "state": "SA",
    "postcode": "5556",
    "phone": "",
    "lat": -33.940345549999996,
    "lon": 137.61590819999998,
    "hours": ""
  },
  {
    "id": "salon-553",
    "name": "Take Off Skin & Body",
    "address": "North Melbourne",
    "suburb": "North Melbourne",
    "state": "VIC",
    "postcode": "3051",
    "phone": "",
    "lat": -37.796886099999995,
    "lon": 144.9468844,
    "hours": ""
  },
  {
    "id": "salon-554",
    "name": "Salon Kudos",
    "address": "Upper Coomera",
    "suburb": "Upper Coomera",
    "state": "QLD",
    "postcode": "4209",
    "phone": "",
    "lat": -27.87812635,
    "lon": 153.28283815,
    "hours": ""
  },
  {
    "id": "salon-555",
    "name": "Serenity Face & Body",
    "address": "Balwyn North",
    "suburb": "Balwyn North",
    "state": "VIC",
    "postcode": "3104",
    "phone": "",
    "lat": -37.790782549999996,
    "lon": 145.08523875,
    "hours": ""
  },
  {
    "id": "salon-556",
    "name": "Zinc Clinic",
    "address": "Sapphire Beach",
    "suburb": "Sapphire Beach",
    "state": "NSW",
    "postcode": "2450",
    "phone": "",
    "lat": -30.230106199999998,
    "lon": 153.134998,
    "hours": ""
  },
  {
    "id": "salon-557",
    "name": "Bare Beauty",
    "address": "Caulfield South",
    "suburb": "Caulfield South",
    "state": "VIC",
    "postcode": "3162",
    "phone": "",
    "lat": -37.894660849999994,
    "lon": 145.02494019999997,
    "hours": ""
  },
  {
    "id": "salon-558",
    "name": "Eco Spa",
    "address": "Mandurah",
    "suburb": "Mandurah",
    "state": "WA",
    "postcode": "6210",
    "phone": "",
    "lat": -32.53296979999999,
    "lon": 115.70638844999999,
    "hours": ""
  },
  {
    "id": "salon-559",
    "name": "Napoleon Nails Mornington",
    "address": "Mornington",
    "suburb": "Mornington",
    "state": "VIC",
    "postcode": "3931",
    "phone": "",
    "lat": -38.22804035,
    "lon": 145.06240914999998,
    "hours": ""
  },
  {
    "id": "salon-560",
    "name": "Yen's Nails",
    "address": "Beeliar",
    "suburb": "Beeliar",
    "state": "WA",
    "postcode": "6164",
    "phone": "",
    "lat": -32.1432488,
    "lon": 115.81518845,
    "hours": ""
  },
  {
    "id": "salon-561",
    "name": "Capri Beauty Clinic",
    "address": "Southport",
    "suburb": "Southport",
    "state": "QLD",
    "postcode": "4215",
    "phone": "",
    "lat": -27.966465499999998,
    "lon": 153.3986912,
    "hours": ""
  },
  {
    "id": "salon-562",
    "name": "ARTEVO AESTHETICS",
    "address": "Toukley",
    "suburb": "Toukley",
    "state": "NSW",
    "postcode": "2263",
    "phone": "",
    "lat": -33.25828145,
    "lon": 151.5408236,
    "hours": ""
  },
  {
    "id": "salon-563",
    "name": "The Beauty Bed",
    "address": "Centenary Heights",
    "suburb": "Centenary Heights",
    "state": "QLD",
    "postcode": "4350",
    "phone": "",
    "lat": -27.586242499999997,
    "lon": 151.96177335000002,
    "hours": ""
  },
  {
    "id": "salon-564",
    "name": "My Leongatha Beauty Care",
    "address": "Leongatha",
    "suburb": "Leongatha",
    "state": "VIC",
    "postcode": "3953",
    "phone": "",
    "lat": -38.472043049999996,
    "lon": 145.9417539,
    "hours": ""
  },
  {
    "id": "salon-565",
    "name": "DNA Beauty Therapy",
    "address": "Rouse Hill",
    "suburb": "Rouse Hill",
    "state": "NSW",
    "postcode": "2155",
    "phone": "",
    "lat": -33.69148155,
    "lon": 150.93158855,
    "hours": ""
  },
  {
    "id": "salon-566",
    "name": "Eclipse The Essential Spa",
    "address": "Griffith",
    "suburb": "Griffith",
    "state": "NSW",
    "postcode": "2680",
    "phone": "",
    "lat": -34.2753898,
    "lon": 146.0431462,
    "hours": ""
  },
  {
    "id": "salon-567",
    "name": "Mandurah Anti Ageing Clinic",
    "address": "Mandurah",
    "suburb": "Mandurah",
    "state": "WA",
    "postcode": "6210",
    "phone": "",
    "lat": -32.53296979999999,
    "lon": 115.70638844999999,
    "hours": ""
  },
  {
    "id": "salon-568",
    "name": "Brighton Beauty Therapy",
    "address": "Caulfield South",
    "suburb": "Caulfield South",
    "state": "VIC",
    "postcode": "3162",
    "phone": "",
    "lat": -37.894660849999994,
    "lon": 145.02494019999997,
    "hours": ""
  },
  {
    "id": "salon-569",
    "name": "Essential Beauty & Piercing",
    "address": "Norwood",
    "suburb": "Norwood",
    "state": "SA",
    "postcode": "5067",
    "phone": "",
    "lat": -34.92135225,
    "lon": 138.63205944999999,
    "hours": ""
  },
  {
    "id": "salon-570",
    "name": "Victoria's Hair Studio & Beauty Spot",
    "address": "Scone",
    "suburb": "Scone",
    "state": "NSW",
    "postcode": "2337",
    "phone": "",
    "lat": -32.05840335,
    "lon": 150.84641115000002,
    "hours": ""
  },
  {
    "id": "salon-571",
    "name": "Durack For Beauty",
    "address": "Sunbury",
    "suburb": "Sunbury",
    "state": "VIC",
    "postcode": "3429",
    "phone": "",
    "lat": -37.55339505,
    "lon": 144.70648974999997,
    "hours": ""
  },
  {
    "id": "salon-572",
    "name": "Carol da Silva Beauty Therapy",
    "address": "Griffith",
    "suburb": "Griffith",
    "state": "ACT",
    "postcode": "2603",
    "phone": "",
    "lat": -35.32651065,
    "lon": 149.1393538,
    "hours": ""
  },
  {
    "id": "salon-573",
    "name": "Beauty & Health Focus",
    "address": "Kooringal",
    "suburb": "Kooringal",
    "state": "NSW",
    "postcode": "2650",
    "phone": "",
    "lat": -35.1375537,
    "lon": 147.37419674999998,
    "hours": ""
  },
  {
    "id": "salon-574",
    "name": "Spoilt Rotten",
    "address": "Dunsborough",
    "suburb": "Dunsborough",
    "state": "WA",
    "postcode": "6281",
    "phone": "",
    "lat": -33.61027190000001,
    "lon": 115.0929084,
    "hours": ""
  },
  {
    "id": "salon-575",
    "name": "Mii Beauty",
    "address": "Sydney",
    "suburb": "Sydney",
    "state": "NSW",
    "postcode": "2000",
    "phone": "",
    "lat": -33.869662399999996,
    "lon": 151.20997995000002,
    "hours": ""
  },
  {
    "id": "salon-576",
    "name": "Angelina Nails & FootSpa",
    "address": "Ringwood North",
    "suburb": "Ringwood North",
    "state": "VIC",
    "postcode": "3134",
    "phone": "",
    "lat": -37.79210955,
    "lon": 145.23151040000002,
    "hours": ""
  },
  {
    "id": "salon-577",
    "name": "Serenity Skin & Body Care",
    "address": "Geelong",
    "suburb": "Geelong",
    "state": "VIC",
    "postcode": "3220",
    "phone": "",
    "lat": -38.1481403,
    "lon": 144.36288325,
    "hours": ""
  },
  {
    "id": "salon-578",
    "name": "Serendipity Medi Spa Canning Vale",
    "address": "Canning Vale",
    "suburb": "Canning Vale",
    "state": "WA",
    "postcode": "6155",
    "phone": "",
    "lat": -32.0848137,
    "lon": 115.91797094999998,
    "hours": ""
  },
  {
    "id": "salon-579",
    "name": "Elisabeth De Martin Beauty Salon",
    "address": "Wollongong",
    "suburb": "Wollongong",
    "state": "NSW",
    "postcode": "2500",
    "phone": "",
    "lat": -34.42825265,
    "lon": 150.8930585,
    "hours": ""
  },
  {
    "id": "salon-580",
    "name": "Touch Of Paradise Beauty Salon",
    "address": "Grafton",
    "suburb": "Grafton",
    "state": "NSW",
    "postcode": "2460",
    "phone": "",
    "lat": -29.680991649999996,
    "lon": 152.92977094999998,
    "hours": ""
  },
  {
    "id": "salon-581",
    "name": "Nurture Body Wellness",
    "address": "Fairhaven",
    "suburb": "Fairhaven",
    "state": "VIC",
    "postcode": "3231",
    "phone": "",
    "lat": -38.4560633,
    "lon": 144.08570205,
    "hours": ""
  },
  {
    "id": "salon-582",
    "name": "Chez Belle Skin Care & Beauty Centre",
    "address": "Pimlico",
    "suburb": "Pimlico",
    "state": "QLD",
    "postcode": "4812",
    "phone": "",
    "lat": -19.28115275,
    "lon": 146.78841215,
    "hours": ""
  },
  {
    "id": "salon-583",
    "name": "Simran Beauty Salon",
    "address": "Gables",
    "suburb": "Gables",
    "state": "NSW",
    "postcode": "2765",
    "phone": "",
    "lat": -33.62870045,
    "lon": 150.9069088,
    "hours": ""
  },
  {
    "id": "salon-584",
    "name": "Utopia Hair Artistry & Beauty",
    "address": "Lake Munmorah",
    "suburb": "Lake Munmorah",
    "state": "NSW",
    "postcode": "2259",
    "phone": "",
    "lat": -33.1936744,
    "lon": 151.5733023,
    "hours": ""
  },
  {
    "id": "salon-585",
    "name": "Hunter Valley Lash Extensions",
    "address": "Gillieston Heights",
    "suburb": "Gillieston Heights",
    "state": "NSW",
    "postcode": "2321",
    "phone": "",
    "lat": -32.76092275,
    "lon": 151.5160929,
    "hours": ""
  },
  {
    "id": "salon-586",
    "name": "Brazilian Queen",
    "address": "Weetangera",
    "suburb": "Weetangera",
    "state": "ACT",
    "postcode": "2614",
    "phone": "",
    "lat": -35.2505002,
    "lon": 149.04992355000002,
    "hours": ""
  },
  {
    "id": "salon-587",
    "name": "Ultima Medispa & Laser Clinic",
    "address": "Morwell",
    "suburb": "Morwell",
    "state": "VIC",
    "postcode": "3840",
    "phone": "",
    "lat": -38.2317333,
    "lon": 146.42002795000002,
    "hours": ""
  },
  {
    "id": "salon-588",
    "name": "Advanced Body Image",
    "address": "Berrimah",
    "suburb": "Berrimah",
    "state": "NT",
    "postcode": "0828",
    "phone": "",
    "lat": -12.429217399999999,
    "lon": 130.93775564999999,
    "hours": ""
  },
  {
    "id": "salon-589",
    "name": "Embellish Beauty Therapy",
    "address": "Glenelg South",
    "suburb": "Glenelg South",
    "state": "SA",
    "postcode": "5045",
    "phone": "",
    "lat": -34.988245449999994,
    "lon": 138.51484985000002,
    "hours": ""
  },
  {
    "id": "salon-590",
    "name": "More Day Spa",
    "address": "Batehaven",
    "suburb": "Batehaven",
    "state": "NSW",
    "postcode": "2536",
    "phone": "",
    "lat": -35.735487500000005,
    "lon": 150.1985977,
    "hours": ""
  },
  {
    "id": "salon-591",
    "name": "Nail Art Studio And Training Academy",
    "address": "Browns Plains",
    "suburb": "Browns Plains",
    "state": "QLD",
    "postcode": "4118",
    "phone": "",
    "lat": -27.663156999999998,
    "lon": 153.05183549999998,
    "hours": ""
  },
  {
    "id": "salon-592",
    "name": "Australasian Beauty Therapy Academy",
    "address": "Phillip",
    "suburb": "Phillip",
    "state": "ACT",
    "postcode": "2606",
    "phone": "",
    "lat": -35.346951,
    "lon": 149.09150055,
    "hours": ""
  },
  {
    "id": "salon-593",
    "name": "Let's Make Up",
    "address": "Adelaide",
    "suburb": "Adelaide",
    "state": "SA",
    "postcode": "5000",
    "phone": "",
    "lat": -34.9257512,
    "lon": 138.60075289999997,
    "hours": ""
  },
  {
    "id": "salon-594",
    "name": "Ever Glow Beauty",
    "address": "Stirling",
    "suburb": "Stirling",
    "state": "WA",
    "postcode": "6021",
    "phone": "",
    "lat": -31.884067949999995,
    "lon": 115.81214855,
    "hours": ""
  },
  {
    "id": "salon-595",
    "name": "Portia's Beauty Therapy",
    "address": "Wagga Wagga",
    "suburb": "Wagga Wagga",
    "state": "NSW",
    "postcode": "2650",
    "phone": "",
    "lat": -35.10663799999999,
    "lon": 147.3605957,
    "hours": ""
  },
  {
    "id": "salon-596",
    "name": "Xtreme Rejuvenation Clinic",
    "address": "Maryborough",
    "suburb": "Maryborough",
    "state": "QLD",
    "postcode": "4650",
    "phone": "",
    "lat": -25.539599199999998,
    "lon": 152.70043245,
    "hours": ""
  },
  {
    "id": "salon-597",
    "name": "Belle Affair Skin Therapy & Day Spa",
    "address": "Albany Creek",
    "suburb": "Albany Creek",
    "state": "QLD",
    "postcode": "4035",
    "phone": "",
    "lat": -27.3536523,
    "lon": 152.96835719999999,
    "hours": ""
  },
  {
    "id": "salon-598",
    "name": "Bronzalicious Tan Skin Body",
    "address": "Neutral Bay",
    "suburb": "Neutral Bay",
    "state": "NSW",
    "postcode": "2089",
    "phone": "",
    "lat": -33.8371079,
    "lon": 151.21833389999998,
    "hours": ""
  },
  {
    "id": "salon-599",
    "name": "You Little Beauty",
    "address": "Mahomets Flats",
    "suburb": "Mahomets Flats",
    "state": "WA",
    "postcode": "6530",
    "phone": "",
    "lat": -28.7926433,
    "lon": 114.61208800000001,
    "hours": ""
  },
  {
    "id": "salon-600",
    "name": "Vita Beauty Salon & Day Spa",
    "address": "West Lakes",
    "suburb": "West Lakes",
    "state": "SA",
    "postcode": "5021",
    "phone": "",
    "lat": -34.87341229999999,
    "lon": 138.4946383,
    "hours": ""
  },
  {
    "id": "salon-601",
    "name": "Violetta Beauty",
    "address": "Claremont",
    "suburb": "Claremont",
    "state": "WA",
    "postcode": "6010",
    "phone": "",
    "lat": -31.981251099999998,
    "lon": 115.78080505,
    "hours": ""
  },
  {
    "id": "salon-602",
    "name": "Wellsprings Day Spa",
    "address": "Shepparton",
    "suburb": "Shepparton",
    "state": "VIC",
    "postcode": "3630",
    "phone": "",
    "lat": -36.37339479999999,
    "lon": 145.39191985,
    "hours": ""
  },
  {
    "id": "salon-603",
    "name": "North Perth Beauty & Advanced Hair Removal",
    "address": "North Perth",
    "suburb": "North Perth",
    "state": "WA",
    "postcode": "6006",
    "phone": "",
    "lat": -31.924705050000004,
    "lon": 115.85410074999999,
    "hours": ""
  },
  {
    "id": "salon-604",
    "name": "Deez Hair & Makeup",
    "address": "Ipswich",
    "suburb": "Ipswich",
    "state": "QLD",
    "postcode": "4305",
    "phone": "",
    "lat": -27.714612449999997,
    "lon": 152.7552071,
    "hours": ""
  },
  {
    "id": "salon-605",
    "name": "Beaut√© Par Excellence",
    "address": "Edge Hill",
    "suburb": "Edge Hill",
    "state": "QLD",
    "postcode": "4870",
    "phone": "",
    "lat": -16.90055015,
    "lon": 145.7442974,
    "hours": ""
  },
  {
    "id": "salon-606",
    "name": "Star Anise Beauty Therapy",
    "address": "Huonville",
    "suburb": "Huonville",
    "state": "TAS",
    "postcode": "7109",
    "phone": "",
    "lat": -43.03044285,
    "lon": 147.05440925,
    "hours": ""
  },
  {
    "id": "salon-607",
    "name": "Skin Correctives",
    "address": "Wollongong",
    "suburb": "Wollongong",
    "state": "NSW",
    "postcode": "2500",
    "phone": "",
    "lat": -34.42825265,
    "lon": 150.8930585,
    "hours": ""
  },
  {
    "id": "salon-608",
    "name": "Indulgence at Kurmond",
    "address": "Kurmond",
    "suburb": "Kurmond",
    "state": "NSW",
    "postcode": "2757",
    "phone": "",
    "lat": -33.5493872,
    "lon": 150.70123185,
    "hours": ""
  },
  {
    "id": "salon-609",
    "name": "CosTATT Clinic",
    "address": "Maroochydore",
    "suburb": "Maroochydore",
    "state": "QLD",
    "postcode": "4558",
    "phone": "",
    "lat": -26.655197899999997,
    "lon": 153.07573295,
    "hours": ""
  },
  {
    "id": "salon-610",
    "name": "Extensions Nail & Beauty Salon",
    "address": "29A Musgrave Ave, Labrador",
    "suburb": "Labrador",
    "state": "QLD",
    "postcode": "4215",
    "phone": "",
    "lat": -27.9562551,
    "lon": 153.40151699999998,
    "hours": ""
  },
  {
    "id": "salon-611",
    "name": "Christine's Touch Of Beauty",
    "address": "Dubbo",
    "suburb": "Dubbo",
    "state": "NSW",
    "postcode": "2830",
    "phone": "",
    "lat": -32.2814115,
    "lon": 148.60432275,
    "hours": ""
  },
  {
    "id": "salon-612",
    "name": "Ibah Spa Austinmer",
    "address": "Austinmer",
    "suburb": "Austinmer",
    "state": "NSW",
    "postcode": "2515",
    "phone": "",
    "lat": -34.30199235,
    "lon": 150.92603465,
    "hours": ""
  },
  {
    "id": "salon-613",
    "name": "Isabel Almeida Skin Clinic",
    "address": "Double Bay",
    "suburb": "Double Bay",
    "state": "NSW",
    "postcode": "2028",
    "phone": "",
    "lat": -33.87908445,
    "lon": 151.24314819999998,
    "hours": ""
  },
  {
    "id": "salon-614",
    "name": "The Midland Beauty Boutique",
    "address": "Midland",
    "suburb": "Midland",
    "state": "WA",
    "postcode": "6056",
    "phone": "",
    "lat": -31.891732349999998,
    "lon": 116.00973685,
    "hours": ""
  },
  {
    "id": "salon-615",
    "name": "Beach House Beauty Therapy",
    "address": "Davistown",
    "suburb": "Davistown",
    "state": "NSW",
    "postcode": "2251",
    "phone": "",
    "lat": -33.48477735,
    "lon": 151.36194694999998,
    "hours": ""
  },
  {
    "id": "salon-616",
    "name": "Suppelle Cosmetic Clinic",
    "address": "Shop 3 Fulham House 12-16 Fulham Road Pimlico Qld 4812",
    "suburb": "Pimlico",
    "state": "QLD",
    "postcode": "4812",
    "phone": "",
    "lat": -19.289886999999997,
    "lon": 146.7891835,
    "hours": ""
  },
  {
    "id": "salon-617",
    "name": "Fabu Body",
    "address": "Delacombe",
    "suburb": "Delacombe",
    "state": "VIC",
    "postcode": "3356",
    "phone": "",
    "lat": -37.58177525,
    "lon": 143.81442940000002,
    "hours": ""
  },
  {
    "id": "salon-618",
    "name": "The Studio (for Body & Skin)",
    "address": "Griffith",
    "suburb": "Griffith",
    "state": "NSW",
    "postcode": "2680",
    "phone": "",
    "lat": -34.2753898,
    "lon": 146.0431462,
    "hours": ""
  },
  {
    "id": "salon-619",
    "name": "REPLENISH BEAUTY BOUTIQUE",
    "address": "34 Young St, Petrie",
    "suburb": "Petrie",
    "state": "QLD",
    "postcode": "4502",
    "phone": "",
    "lat": -27.266990000000003,
    "lon": 152.975992,
    "hours": ""
  },
  {
    "id": "salon-620",
    "name": "Changing Faces Beauty Therapy",
    "address": "Shop 5 Cnr Lawson St and Wynnum Rd, Morningside",
    "suburb": "Morningside",
    "state": "QLD",
    "postcode": "4170",
    "phone": "",
    "lat": -27.466158599999996,
    "lon": 153.07633615,
    "hours": ""
  },
  {
    "id": "salon-621",
    "name": "Hairhouse Albury",
    "address": "Cnr Swift & David Streets, Shop 9 Myer Centrepoint Shopping Centre Albury 2640 Shop 9 Swift St, Albury",
    "suburb": "Albury",
    "state": "NSW",
    "postcode": "2640",
    "phone": "",
    "lat": -36.08031870000001,
    "lon": 146.91995115,
    "hours": ""
  },
  {
    "id": "salon-622",
    "name": "tir na nOg Skin & Body Therapy",
    "address": "75 Liebig St, Warrnambool",
    "suburb": "Warrnambool",
    "state": "VIC",
    "postcode": "3280",
    "phone": "",
    "lat": -38.38465070000001,
    "lon": 142.4826586,
    "hours": ""
  },
  {
    "id": "salon-623",
    "name": "Beaubelle Beautyclinic",
    "address": "Northbridge",
    "suburb": "Northbridge",
    "state": "WA",
    "postcode": "6003",
    "phone": "",
    "lat": -31.94603505,
    "lon": 115.85584415,
    "hours": ""
  },
  {
    "id": "salon-624",
    "name": "Gisu Beauty Therapy",
    "address": "Belmont",
    "suburb": "Belmont",
    "state": "VIC",
    "postcode": "3216",
    "phone": "",
    "lat": -38.18001795,
    "lon": 144.34282085,
    "hours": ""
  },
  {
    "id": "salon-625",
    "name": "Blissful Beauty",
    "address": "Blaxland",
    "suburb": "Blaxland",
    "state": "NSW",
    "postcode": "2774",
    "phone": "",
    "lat": -33.7354587,
    "lon": 150.62055439999997,
    "hours": ""
  },
  {
    "id": "salon-626",
    "name": "Bodyworks Skin & Nail Clinic",
    "address": "Burleigh Waters",
    "suburb": "Burleigh Waters",
    "state": "QLD",
    "postcode": "4220",
    "phone": "",
    "lat": -28.08468985,
    "lon": 153.43276734999998,
    "hours": ""
  },
  {
    "id": "salon-627",
    "name": "Glo Day Spa",
    "address": "Mosman Park",
    "suburb": "Mosman Park",
    "state": "WA",
    "postcode": "6012",
    "phone": "",
    "lat": -32.01424145,
    "lon": 115.76614889999999,
    "hours": ""
  },
  {
    "id": "salon-628",
    "name": "Second Avenue Hair & Beauty",
    "address": "Camberwell",
    "suburb": "Camberwell",
    "state": "VIC",
    "postcode": "3124",
    "phone": "",
    "lat": -37.83563779999999,
    "lon": 145.0758472,
    "hours": ""
  },
  {
    "id": "salon-629",
    "name": "Buff Me Up Beauty Boutique",
    "address": "Thornbury",
    "suburb": "Thornbury",
    "state": "VIC",
    "postcode": "3071",
    "phone": "",
    "lat": -37.75845145,
    "lon": 145.0057514,
    "hours": ""
  },
  {
    "id": "salon-630",
    "name": "A Touch Of Beauty",
    "address": "Goodwood",
    "suburb": "Goodwood",
    "state": "SA",
    "postcode": "5034",
    "phone": "",
    "lat": -34.95110235,
    "lon": 138.59205394999998,
    "hours": ""
  },
  {
    "id": "salon-631",
    "name": "You're Worthy Beauty Salon",
    "address": "Farrer",
    "suburb": "Farrer",
    "state": "ACT",
    "postcode": "2607",
    "phone": "",
    "lat": -35.376255799999996,
    "lon": 149.10465655000002,
    "hours": ""
  },
  {
    "id": "salon-632",
    "name": "Ella Bache Coffs Harbour",
    "address": "Coffs Harbour",
    "suburb": "Coffs Harbour",
    "state": "NSW",
    "postcode": "2450",
    "phone": "",
    "lat": -30.308397000000003,
    "lon": 153.1073475,
    "hours": ""
  },
  {
    "id": "salon-633",
    "name": "Beauty on Latrobe",
    "address": "Paddington",
    "suburb": "Paddington",
    "state": "QLD",
    "postcode": "4064",
    "phone": "",
    "lat": -27.4637896,
    "lon": 152.99874979999998,
    "hours": ""
  },
  {
    "id": "salon-634",
    "name": "Sunnybank Skin & Body Centre",
    "address": "Sunnybank",
    "suburb": "Sunnybank",
    "state": "QLD",
    "postcode": "4109",
    "phone": "",
    "lat": -27.57980195,
    "lon": 153.05684505,
    "hours": ""
  },
  {
    "id": "salon-635",
    "name": "Elements Face & Body",
    "address": "Queanbeyan",
    "suburb": "Queanbeyan",
    "state": "NSW",
    "postcode": "2620",
    "phone": "",
    "lat": -35.35236525,
    "lon": 149.2295292,
    "hours": ""
  },
  {
    "id": "salon-636",
    "name": "Silk Brazilian Waxing",
    "address": "Prahran",
    "suburb": "Prahran",
    "state": "VIC",
    "postcode": "3181",
    "phone": "",
    "lat": null,
    "lon": null,
    "hours": ""
  },
  {
    "id": "salon-637",
    "name": "Manly Creative Hair & Beauty",
    "address": "Manly",
    "suburb": "Manly",
    "state": "NSW",
    "postcode": "2095",
    "phone": "",
    "lat": -33.80338015,
    "lon": 151.29116885,
    "hours": ""
  },
  {
    "id": "salon-638",
    "name": "Belmont Beauty Bar",
    "address": "Belmont",
    "suburb": "Belmont",
    "state": "VIC",
    "postcode": "3216",
    "phone": "",
    "lat": -38.18001795,
    "lon": 144.34282085,
    "hours": ""
  },
  {
    "id": "salon-639",
    "name": "Body Blitz",
    "address": "Clarinda",
    "suburb": "Clarinda",
    "state": "VIC",
    "postcode": "3169",
    "phone": "",
    "lat": -37.9434055,
    "lon": 145.11922575,
    "hours": ""
  },
  {
    "id": "salon-640",
    "name": "Kanz Beauty World",
    "address": "Wagga Wagga",
    "suburb": "Wagga Wagga",
    "state": "NSW",
    "postcode": "2650",
    "phone": "",
    "lat": -35.10663799999999,
    "lon": 147.3605957,
    "hours": ""
  },
  {
    "id": "salon-641",
    "name": "Bella Skin Health Clinic",
    "address": "Maribyrnong",
    "suburb": "Maribyrnong",
    "state": "VIC",
    "postcode": "3032",
    "phone": "",
    "lat": -37.77241795,
    "lon": 144.8873443,
    "hours": ""
  },
  {
    "id": "salon-642",
    "name": "Oasis Health & Beauty Day Spa",
    "address": "Toowoomba City",
    "suburb": "Toowoomba City",
    "state": "QLD",
    "postcode": "4350",
    "phone": "",
    "lat": -27.5597656,
    "lon": 151.9506378,
    "hours": ""
  }
]